[{"UN":"UNBML","UTR_COD":200,"COMM_STATUS":0,"COMM_TIMESTAMP":"01/01/24 00:00","CITY":"Chorozinho","UTR_NAME":"ETA Triângulo","COMM_TYPE":"Link Getic","PROTOCOL_TYPE":"OPC UA","LAT":-4.075827,"LNG":-38.517578},{"UN":"UNBML","UTR_COD":201,"COMM_STATUS":0,"COMM_TIMESTAMP":"01/01/24 00:00","CITY":"Chorozinho","UTR_NAME":"Timbauba Triangulo","COMM_TYPE":"Roteador Novus 4G","PROTOCOL_TYPE":"MQTT","LAT":-4.353625,"LNG":-38.460739},{"UN":"UNBML","UTR_COD":202,"COMM_STATUS":0,"COMM_TIMESTAMP":"01/01/24 00:00","CITY":"Chorozinho","UTR_NAME":"Captação Canal Integração","COMM_TYPE":"Roteador Novus 4G","PROTOCOL_TYPE":"MQTT","LAT":-4.306329,"LNG":-38.369721},{"UN":"UNBMO","UTR_COD":203,"COMM_STATUS":0,"COMM_TIMESTAMP":"01/01/24 00:00","CITY":"Aracoiaba","UTR_NAME":"ETA Aracoiaba (RAP-01)","COMM_TYPE":"Link Getic","PROTOCOL_TYPE":"OPC UA","LAT":-4.401272,"LNG":-38.717125},{"UN":"UNBMO","UTR_COD":204,"COMM_STATUS":0,"COMM_TIMESTAMP":"01/01/24 00:00","CITY":"Aracoiaba","UTR_NAME":"RAP-02 (eeat-02)","COMM_TYPE":"Roteador Novus 4G","PROTOCOL_TYPE":"OPC UA","LAT":-4.395325,"LNG":-38.756747},{"UN":"UNBMO","UTR_COD":205,"COMM_STATUS":0,"COMM_TIMESTAMP":"01/01/24 00:00","CITY":"Aracoiaba","UTR_NAME":"RAP-03 (eeat-03)","COMM_TYPE":"Link Getic","PROTOCOL_TYPE":"OPC UA","LAT":-4.369892,"LNG":-38.810689},{"UN":"UNBMO","UTR_COD":206,"COMM_STATUS":0,"COMM_TIMESTAMP":"01/01/24 00:00","CITY":"Baturité","UTR_NAME":"RAP-04 EEAT-05","COMM_TYPE":"Link Getic","PROTOCOL_TYPE":"OPC UA/ MQTT","LAT":-4.344108,"LNG":-38.864417},{"UN":"UNBML","UTR_COD":207,"COMM_STATUS":0,"COMM_TIMESTAMP":"01/01/24 00:00","CITY":"Chorozinho","UTR_NAME":"Captação Rio Choró","COMM_TYPE":"Roteador Novus 4G","PROTOCOL_TYPE":"MQTT","LAT":-4.304223,"LNG":-38.497666},{"UN":"UNBMO","UTR_COD":208,"COMM_STATUS":0,"COMM_TIMESTAMP":"01/01/24 00:00","CITY":"Baturité","UTR_NAME":"ETA Baturité","COMM_TYPE":"Link Getic","PROTOCOL_TYPE":"OPC UA","LAT":-4.324444,"LNG":-38.886111},{"UN":"UNBMO","UTR_COD":209,"COMM_STATUS":0,"COMM_TIMESTAMP":"01/01/24 00:00","CITY":"Baturité","UTR_NAME":"RAP-04 Baturité","COMM_TYPE":"EPZ_048279","PROTOCOL_TYPE":"MQTT","LAT":-4.344108,"LNG":-38.864417},{"UN":"UNBMO","UTR_COD":210,"COMM_STATUS":0,"COMM_TIMESTAMP":"01/01/24 00:00","CITY":"Itapebussu","UTR_NAME":"ETA Itapebussu","COMM_TYPE":"Roteador Novus 4G + Elsys","PROTOCOL_TYPE":"MQTT","LAT":-4.061167,"LNG":-38.906278},{"UN":"UNBMO","UTR_COD":211,"COMM_STATUS":0,"COMM_TIMESTAMP":"01/01/24 00:00","CITY":"Itapebussu","UTR_NAME":"Estação Elevatória - Itapebussu","COMM_TYPE":"Link Getic","PROTOCOL_TYPE":"OPC UA","LAT":-4.031376,"LNG":-38.926196},{"UN":"UNBMO","UTR_COD":212,"COMM_STATUS":0,"COMM_TIMESTAMP":"01/01/24 00:00","CITY":"Itapebussu","UTR_NAME":"REL-01 Itapebussu","COMM_TYPE":"EPZ_048363","PROTOCOL_TYPE":"MQTT","LAT":-4.026833,"LNG":-38.971672},{"UN":"UNBMO","UTR_COD":213,"COMM_STATUS":0,"COMM_TIMESTAMP":"01/01/24 00:00","CITY":"Itapebussu","UTR_NAME":"RAP-03 Itapebussu","COMM_TYPE":"Roteador Novus 4G","PROTOCOL_TYPE":"MQTT","LAT":-4.033165,"LNG":-38.926948},{"UN":"UNMTN","UTR_COD":215,"COMM_STATUS":0,"COMM_TIMESTAMP":"01/01/24 00:00","CITY":"Sitios Novos","UTR_NAME":"ETA Sitios Novos","COMM_TYPE":"Roteador Novus 4G","PROTOCOL_TYPE":"OPC UA","LAT":-3.748417,"LNG":-38.950694},{"UN":"UNMTN","UTR_COD":216,"COMM_STATUS":0,"COMM_TIMESTAMP":"01/01/24 00:00","CITY":"Sitios Novos","UTR_NAME":"REL-01 Sitios Novos","COMM_TYPE":"EPZ_048330","PROTOCOL_TYPE":"MQTT","LAT":-3.748298,"LNG":-38.949184},{"UN":"UNMTN","UTR_COD":217,"COMM_STATUS":0,"COMM_TIMESTAMP":"01/01/24 00:00","CITY":"Capuan","UTR_NAME":"EEAT-01 Captação Lago do Parnamirim","COMM_TYPE":null,"PROTOCOL_TYPE":null,"LAT":-3.645451,"LNG":-38.714551},{"UN":"UNMTN","UTR_COD":218,"COMM_STATUS":0,"COMM_TIMESTAMP":"01/01/24 00:00","CITY":"Capuan","UTR_NAME":"REL-03","COMM_TYPE":"EPZ_049328","PROTOCOL_TYPE":null,"LAT":-3.668893,"LNG":-38.712221},{"UN":"UNMTN","UTR_COD":219,"COMM_STATUS":0,"COMM_TIMESTAMP":"01/01/24 00:00","CITY":"Capuan","UTR_NAME":"REL-02","COMM_TYPE":"EPZ_049288","PROTOCOL_TYPE":null,"LAT":-3.692778,"LNG":-38.707500},{"UN":"UNMTN","UTR_COD":220,"COMM_STATUS":0,"COMM_TIMESTAMP":"01/01/24 00:00","CITY":"Capuan","UTR_NAME":"Nucleo Capuan","COMM_TYPE":"iot2050","PROTOCOL_TYPE":null,"LAT":-3.729389,"LNG":-38.691239},{"UN":"UNMTN","UTR_COD":221,"COMM_STATUS":0,"COMM_TIMESTAMP":"01/01/24 00:00","CITY":"Capuan","UTR_NAME":"REL-04 Genipabú","COMM_TYPE":"EPZ_049365","PROTOCOL_TYPE":null,"LAT":-3.735625,"LNG":-38.743950},{"UN":"UNMTN","UTR_COD":222,"COMM_STATUS":0,"COMM_TIMESTAMP":"01/01/24 00:00","CITY":"Capuan","UTR_NAME":"EPZ Reforço Capuan 2","COMM_TYPE":"EPZ_048308","PROTOCOL_TYPE":null,"LAT":-3.731487,"LNG":-38.664875},{"UN":"UNBML","UTR_COD":223,"COMM_STATUS":0,"COMM_TIMESTAMP":"01/01/24 00:00","CITY":"Horizonte","UTR_NAME":"EEAB-02","COMM_TYPE":"iot 2050","PROTOCOL_TYPE":"OPC UA","LAT":-4.073511,"LNG":-38.520883},{"UN":"UNBML","UTR_COD":224,"COMM_STATUS":0,"COMM_TIMESTAMP":"01/01/24 00:00","CITY":"Horizonte","UTR_NAME":"FIT ETA Horizonte","COMM_TYPE":"iot 2050","PROTOCOL_TYPE":"MQTT","LAT":-4.076208,"LNG":-38.517817},{"UN":"UNBML","UTR_COD":225,"COMM_STATUS":0,"COMM_TIMESTAMP":"01/01/24 00:00","CITY":"Horizonte","UTR_NAME":"ETA Horizonte","COMM_TYPE":null,"PROTOCOL_TYPE":null,"LAT":-4.076208,"LNG":-38.517817},{"UN":"UNBML","UTR_COD":226,"COMM_STATUS":0,"COMM_TIMESTAMP":"01/01/24 00:00","CITY":"Pacajus","UTR_NAME":"Núcleo Pacajus","COMM_TYPE":null,"PROTOCOL_TYPE":null,"LAT":-4.174977,"LNG":-38.464737},{"UN":"UNBML","UTR_COD":227,"COMM_STATUS":0,"COMM_TIMESTAMP":"01/01/24 00:00","CITY":"Chorozinho","UTR_NAME":"REL Chorozinho","COMM_TYPE":"EPZ_048331","PROTOCOL_TYPE":"MQTT","LAT":-4.299537,"LNG":-38.499899},{"UN":"UNBMO","UTR_COD":228,"COMM_STATUS":0,"COMM_TIMESTAMP":"01/01/24 00:00","CITY":"Guaramiranga","UTR_NAME":"EEPT-01 Guaramiranga","COMM_TYPE":"Novus 4G","PROTOCOL_TYPE":"MQTT","LAT":-4.260591,"LNG":-38.933580},{"UN":"UNBMO","UTR_COD":229,"COMM_STATUS":0,"COMM_TIMESTAMP":"01/01/24 00:00","CITY":"Guaramiranga","UTR_NAME":"EEPT-02 Guaramiranga","COMM_TYPE":"Novus 4G","PROTOCOL_TYPE":"MQTT","LAT":0,"LNG":0},{"UN":"UNBMO","UTR_COD":230,"COMM_STATUS":0,"COMM_TIMESTAMP":"01/01/24 00:00","CITY":"Guaramiranga","UTR_NAME":"Escritório Guaramiranga","COMM_TYPE":"iot 2050","PROTOCOL_TYPE":"MQTT","LAT":-4.260583,"LNG":-38.931889},{"UN":"UNBMO","UTR_COD":231,"COMM_STATUS":0,"COMM_TIMESTAMP":"01/01/24 00:00","CITY":"Guaramiranga","UTR_NAME":"REL-01 Guaramiranga","COMM_TYPE":"EPZ_048323","PROTOCOL_TYPE":"MQTT","LAT":-4.260583,"LNG":-38.931889},{"UN":"UNBMO","UTR_COD":232,"COMM_STATUS":0,"COMM_TIMESTAMP":"01/01/24 00:00","CITY":"Guaramiranga","UTR_NAME":"EEPA-01 Guaramiranga","COMM_TYPE":"iot 2050","PROTOCOL_TYPE":"MQTT","LAT":-4.262778,"LNG":-38.930750},{"UN":"UNBMO","UTR_COD":233,"COMM_STATUS":0,"COMM_TIMESTAMP":"01/01/24 00:00","CITY":"Guaramiranga","UTR_NAME":"EEPT-07 Guaramiranga","COMM_TYPE":"iot 2050","PROTOCOL_TYPE":"MQTT","LAT":-4.261944,"LNG":-38.937778},{"UN":"UNBMO","UTR_COD":234,"COMM_STATUS":0,"COMM_TIMESTAMP":"01/01/24 00:00","CITY":"Guaramiranga","UTR_NAME":"EEPT-06 Guaramiranga","COMM_TYPE":"Novus 4G","PROTOCOL_TYPE":"MQTT","LAT":-4.260802,"LNG":-38.934713},{"UN":"UNBML","UTR_COD":235,"COMM_STATUS":0,"COMM_TIMESTAMP":"01/01/24 00:00","CITY":"Aquiraz","UTR_NAME":"ETA Aquiraz - EEAT-02","COMM_TYPE":"Link","PROTOCOL_TYPE":null,"LAT":-3.909450,"LNG":-38.379498},{"UN":"UNBML","UTR_COD":236,"COMM_STATUS":0,"COMM_TIMESTAMP":"01/01/24 00:00","CITY":"Aquiraz","UTR_NAME":"ETA Aquiraz - EEAT-01","COMM_TYPE":"Link","PROTOCOL_TYPE":null,"LAT":-3.909356,"LNG":-38.379825},{"UN":"UNBML","UTR_COD":237,"COMM_STATUS":0,"COMM_TIMESTAMP":"01/01/24 00:00","CITY":"Aquiraz","UTR_NAME":"EECS-02 Captação Lagoa do Catu","COMM_TYPE":"Novus 4G","PROTOCOL_TYPE":null,"LAT":-3.903628,"LNG":-38.352853},{"UN":"UNBML","UTR_COD":238,"COMM_STATUS":0,"COMM_TIMESTAMP":"01/01/24 00:00","CITY":"Aquiraz","UTR_NAME":"REL-03 Aquiraz","COMM_TYPE":"EPZ_048276","PROTOCOL_TYPE":null,"LAT":-3.901731,"LNG":-38.380061},{"UN":"UNBML","UTR_COD":239,"COMM_STATUS":0,"COMM_TIMESTAMP":"01/01/24 00:00","CITY":"Aquiraz","UTR_NAME":"REL-04 Prainha","COMM_TYPE":"EPZ_048306","PROTOCOL_TYPE":null,"LAT":-3.903628,"LNG":-38.352853},{"UN":"UNBSI","UTR_COD":250,"COMM_STATUS":0,"COMM_TIMESTAMP":"01/01/24 00:00","CITY":"Pires Ferreira","UTR_NAME":"ETA Marruás","COMM_TYPE":"CLP + Roteador Microtik ","PROTOCOL_TYPE":"MQTT","LAT":-4.308056,"LNG":-40.548008},{"UN":"UNBSI","UTR_COD":251,"COMM_STATUS":0,"COMM_TIMESTAMP":"01/01/24 00:00","CITY":"Pires Ferreira","UTR_NAME":"Captação Marruás EEAB-01","COMM_TYPE":"Roteador Novus ","PROTOCOL_TYPE":"MQTT","LAT":-4.275717,"LNG":-40.476783},{"UN":"UNBSI","UTR_COD":252,"COMM_STATUS":0,"COMM_TIMESTAMP":"01/01/24 00:00","CITY":"Pires Ferreira","UTR_NAME":"REL-03","COMM_TYPE":"CLP + Roteador Novus","PROTOCOL_TYPE":"MQTT","LAT":-4.303350,"LNG":-40.545267},{"UN":"UNBSI","UTR_COD":253,"COMM_STATUS":0,"COMM_TIMESTAMP":"01/01/24 00:00","CITY":"Pires Ferreira","UTR_NAME":"EEAT-03 Delmiro Golveia","COMM_TYPE":"CLP + Roteador Microtik ","PROTOCOL_TYPE":"MQTT","LAT":-4.273167,"LNG":-40.555590},{"UN":"UNBSI","UTR_COD":254,"COMM_STATUS":0,"COMM_TIMESTAMP":"01/01/24 00:00","CITY":"Pires Ferreira","UTR_NAME":"RAP-04","COMM_TYPE":"CLP + Roteador Novus ","PROTOCOL_TYPE":"MQTT","LAT":-4.259400,"LNG":-40.549500},{"UN":"UNBSI","UTR_COD":255,"COMM_STATUS":0,"COMM_TIMESTAMP":"01/01/24 00:00","CITY":"Pires Ferreira","UTR_NAME":"REL-02","COMM_TYPE":"CLP + Roteador Novus ","PROTOCOL_TYPE":"MQTT","LAT":-4.248733,"LNG":-40.650000},{"UN":"UNBSI","UTR_COD":256,"COMM_STATUS":0,"COMM_TIMESTAMP":"01/01/24 00:00","CITY":"Pires Ferreira","UTR_NAME":"Poços","COMM_TYPE":"CLP + Roteador Microtik","PROTOCOL_TYPE":"MQTT","LAT":-4.246333,"LNG":-40.643617},{"UN":"UNBSI","UTR_COD":260,"COMM_STATUS":0,"COMM_TIMESTAMP":"01/01/24 00:00","CITY":"Varjota","UTR_NAME":"Captação/ETA Varjota","COMM_TYPE":"CLP + Novus","PROTOCOL_TYPE":"MQTT","LAT":-4.210106,"LNG":-40.462147},{"UN":"UNBSI","UTR_COD":261,"COMM_STATUS":0,"COMM_TIMESTAMP":"01/01/24 00:00","CITY":"Varjota","UTR_NAME":"REL-01 Varjota","COMM_TYPE":"CLP + Novus","PROTOCOL_TYPE":"MQTT","LAT":-4.195306,"LNG":-40.472275},{"UN":"UNBSI","UTR_COD":262,"COMM_STATUS":0,"COMM_TIMESTAMP":"01/01/24 00:00","CITY":"Varjota","UTR_NAME":"RAP-03 Reriutaba","COMM_TYPE":"CLP + Novus","PROTOCOL_TYPE":"MQTT","LAT":-4.169239,"LNG":-40.537820},{"UN":"UNBSI","UTR_COD":263,"COMM_STATUS":0,"COMM_TIMESTAMP":"01/01/24 00:00","CITY":"Varjota","UTR_NAME":"REL-03 Reriutaba","COMM_TYPE":"CLP + Novus","PROTOCOL_TYPE":"MQTT","LAT":-4.143986,"LNG":-40.583747},{"UN":"UNBSI","UTR_COD":270,"COMM_STATUS":0,"COMM_TIMESTAMP":"01/01/24 00:00","CITY":"Chaval","UTR_NAME":"ETA Itaúna","COMM_TYPE":"EPZ 49363","PROTOCOL_TYPE":null,"LAT":0,"LNG":0},{"UN":"UNBSI","UTR_COD":271,"COMM_STATUS":0,"COMM_TIMESTAMP":"01/01/24 00:00","CITY":"Chaval","UTR_NAME":"EEAT-03 RAP da Pedra","COMM_TYPE":"EPZ 49342","PROTOCOL_TYPE":null,"LAT":0,"LNG":0},{"UN":"UNBSI","UTR_COD":272,"COMM_STATUS":0,"COMM_TIMESTAMP":"01/01/24 00:00","CITY":"Chaval","UTR_NAME":"REL-06 Barroquinha","COMM_TYPE":"EPZ 49298","PROTOCOL_TYPE":null,"LAT":0,"LNG":0},{"UN":"UNBAC","UTR_COD":300,"COMM_STATUS":0,"COMM_TIMESTAMP":"01/01/24 00:00","CITY":"Santa Quitéria","UTR_NAME":"ETA Santa Quitéria","COMM_TYPE":"Provedor Externo sem VPN","PROTOCOL_TYPE":"MQTT","LAT":-4.238478,"LNG":-40.067797},{"UN":"UNBAC","UTR_COD":301,"COMM_STATUS":0,"COMM_TIMESTAMP":"01/01/24 00:00","CITY":"Santa Quitéria","UTR_NAME":"EECS-01 Captação","COMM_TYPE":"Rádio Transnet com UTR300","PROTOCOL_TYPE":"Serial + MQTT","LAT":-4.237289,"LNG":-40.066125},{"UN":"UNBAC","UTR_COD":302,"COMM_STATUS":0,"COMM_TIMESTAMP":"01/01/24 00:00","CITY":"Santa Quitéria","UTR_NAME":"EEAT-02 ST QUITERIA","COMM_TYPE":"Rádio Orbit com UTR303","PROTOCOL_TYPE":"OPC UA","LAT":-4.321544,"LNG":-40.151711},{"UN":"UNBAC","UTR_COD":303,"COMM_STATUS":0,"COMM_TIMESTAMP":"01/01/24 00:00","CITY":"Santa Quitéria","UTR_NAME":"EEAT-03 ST QUITERIA","COMM_TYPE":"Link Getic + Orbit. ","PROTOCOL_TYPE":"OPC UA","LAT":-4.332828,"LNG":-40.154861},{"UN":"UNBAC","UTR_COD":304,"COMM_STATUS":0,"COMM_TIMESTAMP":"01/01/24 00:00","CITY":"Santa Quitéria","UTR_NAME":"REL-03 ST QUITERIA","COMM_TYPE":"Rádio Orbit com UTR303","PROTOCOL_TYPE":"OPC UA","LAT":-4.340033,"LNG":-40.152364},{"UN":"UNBAC","UTR_COD":310,"COMM_STATUS":0,"COMM_TIMESTAMP":"01/01/24 00:00","CITY":"Acaraú","UTR_NAME":"ETA Acaraú","COMM_TYPE":"Roteador Novus 4G","PROTOCOL_TYPE":"MQTT","LAT":-2.886000,"LNG":-40.119778},{"UN":"UNBAC","UTR_COD":311,"COMM_STATUS":0,"COMM_TIMESTAMP":"01/01/24 00:00","CITY":"Acaraú","UTR_NAME":"EEPT-02 Acaraú","COMM_TYPE":"Roteador Novus 4G","PROTOCOL_TYPE":"MQTT","LAT":-2.894036,"LNG":-40.119675},{"UN":"UNBAC","UTR_COD":312,"COMM_STATUS":0,"COMM_TIMESTAMP":"01/01/24 00:00","CITY":"Acaraú","UTR_NAME":"EEPT-03 Acaraú","COMM_TYPE":"Roteador Novus 4G","PROTOCOL_TYPE":"MQTT","LAT":-2.893064,"LNG":-40.113594},{"UN":"UNBAC","UTR_COD":313,"COMM_STATUS":0,"COMM_TIMESTAMP":"01/01/24 00:00","CITY":"Acaraú","UTR_NAME":"EEPT-04 Acaraú","COMM_TYPE":"Roteador Novus 4G","PROTOCOL_TYPE":"MQTT","LAT":-2.893256,"LNG":-40.113856},{"UN":"UNBAC","UTR_COD":314,"COMM_STATUS":0,"COMM_TIMESTAMP":"01/01/24 00:00","CITY":"Acaraú","UTR_NAME":"REL-01 Acaraú","COMM_TYPE":"Roteador Novus 4G","PROTOCOL_TYPE":"MQTT","LAT":-2.886000,"LNG":-40.119778},{"UN":"UNBAC","UTR_COD":315,"COMM_STATUS":0,"COMM_TIMESTAMP":"01/01/24 00:00","CITY":"Acaraú","UTR_NAME":"REL-02 Acaraú","COMM_TYPE":"EPZ_048339","PROTOCOL_TYPE":"MQTT","LAT":-2.896194,"LNG":-40.107306},{"UN":"UNBAC","UTR_COD":316,"COMM_STATUS":0,"COMM_TIMESTAMP":"01/01/24 00:00","CITY":"Acaraú","UTR_NAME":"EEAT-03 Rio das Garças","COMM_TYPE":null,"PROTOCOL_TYPE":null,"LAT":-2.890003,"LNG":-40.111081},{"UN":"UNBAC","UTR_COD":317,"COMM_STATUS":0,"COMM_TIMESTAMP":"01/01/24 00:00","CITY":"Acaraú","UTR_NAME":"EERD-01 Acaraú","COMM_TYPE":null,"PROTOCOL_TYPE":null,"LAT":-2.886083,"LNG":-40.113253},{"UN":"UNBAC","UTR_COD":320,"COMM_STATUS":0,"COMM_TIMESTAMP":"01/01/24 00:00","CITY":"Jeri","UTR_NAME":"EEAT-01 Jeri (RAP + 6xPT) ","COMM_TYPE":null,"PROTOCOL_TYPE":null,"LAT":-2.793578,"LNG":-40.517383},{"UN":"UNBAC","UTR_COD":321,"COMM_STATUS":0,"COMM_TIMESTAMP":"01/01/24 00:00","CITY":"Jeri","UTR_NAME":"EEE1 Jeri","COMM_TYPE":null,"PROTOCOL_TYPE":null,"LAT":-2.799813,"LNG":-40.504322},{"UN":"UNBAC","UTR_COD":322,"COMM_STATUS":0,"COMM_TIMESTAMP":"01/01/24 00:00","CITY":"Jeri","UTR_NAME":"ETE Jeri","COMM_TYPE":null,"PROTOCOL_TYPE":null,"LAT":-2.793578,"LNG":-40.517383},{"UN":"UNBAC","UTR_COD":330,"COMM_STATUS":0,"COMM_TIMESTAMP":"01/01/24 00:00","CITY":"Ipaguassu Mirim","UTR_NAME":"Captação Ipaguassu Mirim","COMM_TYPE":null,"PROTOCOL_TYPE":null,"LAT":0,"LNG":0},{"UN":"UNBAC","UTR_COD":331,"COMM_STATUS":0,"COMM_TIMESTAMP":"01/01/24 00:00","CITY":"Ipaguassu Mirim","UTR_NAME":"ETA Ipaguassu Mirim","COMM_TYPE":null,"PROTOCOL_TYPE":null,"LAT":0,"LNG":0},{"UN":"UNBAC","UTR_COD":332,"COMM_STATUS":0,"COMM_TIMESTAMP":"01/01/24 00:00","CITY":"Massapê","UTR_NAME":"EEAT-03 / EEAT-04 Massapê","COMM_TYPE":null,"PROTOCOL_TYPE":null,"LAT":0,"LNG":0},{"UN":"UNBAC","UTR_COD":333,"COMM_STATUS":0,"COMM_TIMESTAMP":"01/01/24 00:00","CITY":"Mumbaba","UTR_NAME":"EEAT-05 Mumbaba","COMM_TYPE":null,"PROTOCOL_TYPE":null,"LAT":0,"LNG":0},{"UN":"UNBCL","UTR_COD":350,"COMM_STATUS":0,"COMM_TIMESTAMP":"01/01/24 00:00","CITY":"Pentecoste","UTR_NAME":"Sede Pentecoste","COMM_TYPE":"Link Getic + Transnet","PROTOCOL_TYPE":"OPC UA","LAT":-3.797288,"LNG":-39.267236},{"UN":"UNBCL","UTR_COD":351,"COMM_STATUS":0,"COMM_TIMESTAMP":"01/01/24 00:00","CITY":"Pentecoste","UTR_NAME":"ETA Pentecoste (UTR 2)","COMM_TYPE":"Radio Transnet900 com UTR 350","PROTOCOL_TYPE":"OPC UA","LAT":-3.798857,"LNG":-39.267038},{"UN":"UNBCL","UTR_COD":352,"COMM_STATUS":0,"COMM_TIMESTAMP":"01/01/24 00:00","CITY":"Pentecoste","UTR_NAME":"REL-03 São Pedro (UTR 3)","COMM_TYPE":"Radio Transnet900 com UTR 350","PROTOCOL_TYPE":"OPC UA","LAT":-3.813645,"LNG":-39.261324},{"UN":"UNBCL","UTR_COD":353,"COMM_STATUS":0,"COMM_TIMESTAMP":"01/01/24 00:00","CITY":"Pentecoste","UTR_NAME":"REL-02 Gomes da Silva (UTR 4)","COMM_TYPE":"Radio Transnet900 com UTR 350","PROTOCOL_TYPE":"OPC UA","LAT":-3.792659,"LNG":-39.265366},{"UN":"UNBCL","UTR_COD":354,"COMM_STATUS":0,"COMM_TIMESTAMP":"01/01/24 00:00","CITY":"Pentecoste","UTR_NAME":"REL-04 Santa Inês (UTR 5)","COMM_TYPE":"Radio Transnet900 com UTR 350","PROTOCOL_TYPE":"OPC UA","LAT":-3.788212,"LNG":-39.265228},{"UN":"UNBCL","UTR_COD":355,"COMM_STATUS":0,"COMM_TIMESTAMP":"01/01/24 00:00","CITY":"Lagoinha","UTR_NAME":"SSD Lagoinha","COMM_TYPE":"IOT2050","PROTOCOL_TYPE":"MQTT","LAT":-3.350278,"LNG":-39.135278},{"UN":"UNBCL","UTR_COD":356,"COMM_STATUS":0,"COMM_TIMESTAMP":"01/01/24 00:00","CITY":"Lagoinha","UTR_NAME":"PT1","COMM_TYPE":"IOT2050","PROTOCOL_TYPE":"MQTT","LAT":-3.348800,"LNG":-39.135667},{"UN":"UNBCL","UTR_COD":357,"COMM_STATUS":0,"COMM_TIMESTAMP":"01/01/24 00:00","CITY":"Lagoinha","UTR_NAME":"PT2","COMM_TYPE":"IOT2050","PROTOCOL_TYPE":"MQTT","LAT":-3.349328,"LNG":-39.137961},{"UN":"UNBCL","UTR_COD":358,"COMM_STATUS":0,"COMM_TIMESTAMP":"01/01/24 00:00","CITY":"Paracuru","UTR_NAME":"ETA -  Paracuru","COMM_TYPE":"IOT2050","PROTOCOL_TYPE":"MQTT","LAT":0,"LNG":0},{"UN":"UNBCL","UTR_COD":359,"COMM_STATUS":0,"COMM_TIMESTAMP":"01/01/24 00:00","CITY":"Paracuru","UTR_NAME":"ETA -  Paracuru","COMM_TYPE":"IOT2050","PROTOCOL_TYPE":"MQTT","LAT":0,"LNG":0},{"UN":"UNBCL","UTR_COD":360,"COMM_STATUS":0,"COMM_TIMESTAMP":"01/01/24 00:00","CITY":"Irauçuba","UTR_NAME":"Captação Açude Missi","COMM_TYPE":"IOT2050","PROTOCOL_TYPE":"MQTT","LAT":0,"LNG":0},{"UN":"UNBCL","UTR_COD":361,"COMM_STATUS":0,"COMM_TIMESTAMP":"01/01/24 00:00","CITY":"Irauçuba","UTR_NAME":"EEAB RSE-02","COMM_TYPE":"Roteador Novus 4G","PROTOCOL_TYPE":"OPC UA","LAT":0,"LNG":0},{"UN":"UNBCL","UTR_COD":362,"COMM_STATUS":0,"COMM_TIMESTAMP":"01/01/24 00:00","CITY":"Irauçuba","UTR_NAME":"ETA Irauçuba","COMM_TYPE":"Roteador Novus 4G","PROTOCOL_TYPE":"OPC UA","LAT":0,"LNG":0},{"UN":"UNBCL","UTR_COD":363,"COMM_STATUS":0,"COMM_TIMESTAMP":"01/01/24 00:00","CITY":"Irauçuba","UTR_NAME":"REL-02","COMM_TYPE":"EPZ_048293","PROTOCOL_TYPE":"MQTT","LAT":0,"LNG":0},{"UN":"UNBCL","UTR_COD":364,"COMM_STATUS":0,"COMM_TIMESTAMP":"01/01/24 00:00","CITY":"Pecém","UTR_NAME":"RESERVATÓRIO APOIADO RAP-02","COMM_TYPE":null,"PROTOCOL_TYPE":"LORA","LAT":0,"LNG":0},{"UN":"UNBCL","UTR_COD":365,"COMM_STATUS":0,"COMM_TIMESTAMP":"01/01/24 00:00","CITY":"Pecém","UTR_NAME":"ETA","COMM_TYPE":"IOT2050","PROTOCOL_TYPE":"MQTT","LAT":0,"LNG":0},{"UN":"UNBSC","UTR_COD":400,"COMM_STATUS":0,"COMM_TIMESTAMP":"01/01/24 00:00","CITY":"Crateús","UTR_NAME":"ETA Poty","COMM_TYPE":"CLP + Fibra","PROTOCOL_TYPE":"OPC UA","LAT":-5.185508,"LNG":-40.675942},{"UN":"UNBSC","UTR_COD":401,"COMM_STATUS":0,"COMM_TIMESTAMP":"01/01/24 00:00","CITY":"Crateús","UTR_NAME":"Captação Carnaubal","COMM_TYPE":"Roteador Novus ","PROTOCOL_TYPE":"MQTT","LAT":-5.281144,"LNG":-40.669814},{"UN":"UNBSC","UTR_COD":402,"COMM_STATUS":0,"COMM_TIMESTAMP":"01/01/24 00:00","CITY":"Crateús","UTR_NAME":"Captação Batalhão","COMM_TYPE":"Roteador Novus","PROTOCOL_TYPE":"MQTT","LAT":-5.194855,"LNG":-40.658407},{"UN":"UNBSC","UTR_COD":403,"COMM_STATUS":0,"COMM_TIMESTAMP":"01/01/24 00:00","CITY":"Crateús","UTR_NAME":"EEAT-02 UFC","COMM_TYPE":"CLP + Roteador Novus","PROTOCOL_TYPE":"OPC UA","LAT":-5.186116,"LNG":-40.639305},{"UN":"UNBSC","UTR_COD":404,"COMM_STATUS":0,"COMM_TIMESTAMP":"01/01/24 00:00","CITY":"Crateús","UTR_NAME":"EEAT-03 Dom Fragoso","COMM_TYPE":"CLP + Roteador Novus","PROTOCOL_TYPE":"OPC UA","LAT":-5.161092,"LNG":-40.662961},{"UN":"UNBSC","UTR_COD":405,"COMM_STATUS":0,"COMM_TIMESTAMP":"01/01/24 00:00","CITY":"Crateús","UTR_NAME":"REL-04 Dom Fragoso","COMM_TYPE":"CLP + Roteador Novus","PROTOCOL_TYPE":"OPC UA","LAT":-5.156065,"LNG":-40.662032},{"UN":"UNBSC","UTR_COD":406,"COMM_STATUS":0,"COMM_TIMESTAMP":"01/01/24 00:00","CITY":"Crateús","UTR_NAME":"EPZ Sto. Herminio","COMM_TYPE":"CLP + Roteador Novus","PROTOCOL_TYPE":"OPC UA","LAT":-5.184015,"LNG":-40.656696},{"UN":"UNBSC","UTR_COD":407,"COMM_STATUS":0,"COMM_TIMESTAMP":"01/01/24 00:00","CITY":"Crateús","UTR_NAME":"EPZ Barrocão","COMM_TYPE":"CLP + Roteador Novus","PROTOCOL_TYPE":"OPC UA","LAT":0,"LNG":0},{"UN":"UNBSC","UTR_COD":410,"COMM_STATUS":0,"COMM_TIMESTAMP":"01/01/24 00:00","CITY":"Novo Oriente","UTR_NAME":"ETA Novo Oriente ","COMM_TYPE":null,"PROTOCOL_TYPE":null,"LAT":-5.546528,"LNG":-40.773500},{"UN":"UNBSC","UTR_COD":411,"COMM_STATUS":0,"COMM_TIMESTAMP":"01/01/24 00:00","CITY":"Novo Oriente","UTR_NAME":"EECS-01 Captação Flor do Campo","COMM_TYPE":null,"PROTOCOL_TYPE":null,"LAT":-5.572778,"LNG":-40.677222},{"UN":"UNBSC","UTR_COD":412,"COMM_STATUS":0,"COMM_TIMESTAMP":"01/01/24 00:00","CITY":"Novo Oriente","UTR_NAME":"EECS-02 Captação dos Rodrigues","COMM_TYPE":null,"PROTOCOL_TYPE":null,"LAT":0,"LNG":0},{"UN":"UNBSC","UTR_COD":413,"COMM_STATUS":0,"COMM_TIMESTAMP":"01/01/24 00:00","CITY":"Novo Oriente","UTR_NAME":"EERD-03 Booster Fechado","COMM_TYPE":null,"PROTOCOL_TYPE":null,"LAT":-5.540278,"LNG":-40.790833},{"UN":"UNBSC","UTR_COD":414,"COMM_STATUS":0,"COMM_TIMESTAMP":"01/01/24 00:00","CITY":"Novo Oriente","UTR_NAME":"EERD-01 Varzea do Feijão ","COMM_TYPE":null,"PROTOCOL_TYPE":null,"LAT":-5.540278,"LNG":-40.790833},{"UN":"UNBSC","UTR_COD":415,"COMM_STATUS":0,"COMM_TIMESTAMP":"01/01/24 00:00","CITY":"Novo Oriente","UTR_NAME":"REL-02","COMM_TYPE":null,"PROTOCOL_TYPE":null,"LAT":-5.545278,"LNG":-40.795278},{"UN":"UNBSC","UTR_COD":416,"COMM_STATUS":0,"COMM_TIMESTAMP":"01/01/24 00:00","CITY":"Novo Oriente","UTR_NAME":"EERD-02 Booster dos Henriques","COMM_TYPE":null,"PROTOCOL_TYPE":null,"LAT":0,"LNG":0},{"UN":"UNBSC","UTR_COD":417,"COMM_STATUS":0,"COMM_TIMESTAMP":"01/01/24 00:00","CITY":"Novo Oriente","UTR_NAME":"REL-03","COMM_TYPE":null,"PROTOCOL_TYPE":null,"LAT":-5.600000,"LNG":-40.686944},{"UN":"UNBSC","UTR_COD":420,"COMM_STATUS":0,"COMM_TIMESTAMP":"01/01/24 00:00","CITY":"Tamboril","UTR_NAME":"EECS-01 Captação Açude Carão","COMM_TYPE":"Roteador Novus ","PROTOCOL_TYPE":"MQTT","LAT":0,"LNG":0},{"UN":"UNBSC","UTR_COD":421,"COMM_STATUS":0,"COMM_TIMESTAMP":"01/01/24 00:00","CITY":"Tamboril","UTR_NAME":"ETA Tamboril","COMM_TYPE":"CLP + Roteador Novus","PROTOCOL_TYPE":"OPC UA","LAT":0,"LNG":0},{"UN":"UNBSC","UTR_COD":422,"COMM_STATUS":0,"COMM_TIMESTAMP":"01/01/24 00:00","CITY":"Tamboril","UTR_NAME":"EP Conjunto Novo Tamboril","COMM_TYPE":"Roteador Novus","PROTOCOL_TYPE":"MQTT","LAT":0,"LNG":0},{"UN":"UNBSC","UTR_COD":423,"COMM_STATUS":0,"COMM_TIMESTAMP":"01/01/24 00:00","CITY":"Tamboril","UTR_NAME":"EP Monte Castelo PT-29 PT-30","COMM_TYPE":"Roteador Novus","PROTOCOL_TYPE":"MQTT","LAT":0,"LNG":0},{"UN":"UNBSC","UTR_COD":424,"COMM_STATUS":0,"COMM_TIMESTAMP":"01/01/24 00:00","CITY":"Tamboril","UTR_NAME":"REL-02","COMM_TYPE":"Roteador Novus","PROTOCOL_TYPE":"MQTT","LAT":0,"LNG":0},{"UN":"UNBSC","UTR_COD":425,"COMM_STATUS":0,"COMM_TIMESTAMP":"01/01/24 00:00","CITY":"Tamboril","UTR_NAME":"REL-01","COMM_TYPE":"Roteador Novus","PROTOCOL_TYPE":"MQTT","LAT":0,"LNG":0},{"UN":"UNBSC","UTR_COD":426,"COMM_STATUS":0,"COMM_TIMESTAMP":"01/01/24 00:00","CITY":"Tamboril","UTR_NAME":"EERD-01 Vila São Pedro","COMM_TYPE":"CLP + Roteador Novus","PROTOCOL_TYPE":"MQTT","LAT":0,"LNG":0},{"UN":"UNBSC","UTR_COD":427,"COMM_STATUS":0,"COMM_TIMESTAMP":"01/01/24 00:00","CITY":"Tamboril","UTR_NAME":"REL-03","COMM_TYPE":"CLP + Roteador Novus","PROTOCOL_TYPE":"MQTT","LAT":0,"LNG":0},{"UN":"UNBSC","UTR_COD":428,"COMM_STATUS":0,"COMM_TIMESTAMP":"01/01/24 00:00","CITY":"Tamboril","UTR_NAME":"EP Brutos PT-31","COMM_TYPE":"Roteador Novus","PROTOCOL_TYPE":"MQTT","LAT":0,"LNG":0},{"UN":"UNBSC","UTR_COD":429,"COMM_STATUS":0,"COMM_TIMESTAMP":"01/01/24 00:00","CITY":"Tamboril","UTR_NAME":"EP Brutos PT-28","COMM_TYPE":"Roteador Novus","PROTOCOL_TYPE":"MQTT","LAT":0,"LNG":0},{"UN":"UNBSC","UTR_COD":430,"COMM_STATUS":0,"COMM_TIMESTAMP":"01/01/24 00:00","CITY":"Tamboril","UTR_NAME":"EP Vila Carão","COMM_TYPE":"EPZ Solar","PROTOCOL_TYPE":"MQTT","LAT":0,"LNG":0},{"UN":"UNBSA","UTR_COD":450,"COMM_STATUS":0,"COMM_TIMESTAMP":"01/01/24 00:00","CITY":"Cedro","UTR_NAME":"ETA Cedro","COMM_TYPE":"Link Getic","PROTOCOL_TYPE":"OPC UA","LAT":-6.5997508,"LNG":-39.0564726},{"UN":"UNBSA","UTR_COD":451,"COMM_STATUS":0,"COMM_TIMESTAMP":"01/01/24 00:00","CITY":"Cedro","UTR_NAME":"EECS-02 Captação","COMM_TYPE":"Roteador Novus 4G","PROTOCOL_TYPE":"MQTT","LAT":-6.5997508,"LNG":-39.0564726},{"UN":"UNBSA","UTR_COD":452,"COMM_STATUS":0,"COMM_TIMESTAMP":"01/01/24 00:00","CITY":"Cedro","UTR_NAME":"EERD-01 Booster Candeias","COMM_TYPE":"Roteador Novus 4G","PROTOCOL_TYPE":"MQTT","LAT":-6.598252,"LNG":-39.068712},{"UN":"UNBSA","UTR_COD":453,"COMM_STATUS":0,"COMM_TIMESTAMP":"01/01/24 00:00","CITY":"Cedro","UTR_NAME":"REL-02 Candeias","COMM_TYPE":"Roteador Novus 4G","PROTOCOL_TYPE":"MQTT","LAT":-6.6022314,"LNG":-39.0974906},{"UN":"UNBSA","UTR_COD":454,"COMM_STATUS":0,"COMM_TIMESTAMP":"01/01/24 00:00","CITY":"Cedro","UTR_NAME":"EEAT-04 Angicos","COMM_TYPE":"Roteador Novus 4G","PROTOCOL_TYPE":"MQTT","LAT":-6.548381,"LNG":-39.046272},{"UN":"UNBSA","UTR_COD":455,"COMM_STATUS":0,"COMM_TIMESTAMP":"01/01/24 00:00","CITY":"Cedro","UTR_NAME":"REL-05 Angicos","COMM_TYPE":"Roteador Novus 4G","PROTOCOL_TYPE":"MQTT","LAT":-6.479620,"LNG":-39.054813},{"UN":"UNBBJ","UTR_COD":500,"COMM_STATUS":0,"COMM_TIMESTAMP":"01/01/24 00:00","CITY":"Quixeré","UTR_NAME":"ETA Quixeré","COMM_TYPE":"Link da Getic","PROTOCOL_TYPE":"OPC UA","LAT":-5.074222,"LNG":-38.006786},{"UN":"UNBBJ","UTR_COD":501,"COMM_STATUS":0,"COMM_TIMESTAMP":"01/01/24 00:00","CITY":"Quixeré","UTR_NAME":"REL-01 Quixeré","COMM_TYPE":"Link da Getic","PROTOCOL_TYPE":"OPC UA","LAT":-5.073306,"LNG":-37.990528},{"UN":"UNBBJ","UTR_COD":510,"COMM_STATUS":0,"COMM_TIMESTAMP":"01/01/24 00:00","CITY":"Pereiro","UTR_NAME":"EEAB-03 Captação Rio Jaguaribe","COMM_TYPE":"Roteador Novus 4G","PROTOCOL_TYPE":"MQTT","LAT":-6.016548,"LNG":-38.677470},{"UN":"UNBBJ","UTR_COD":511,"COMM_STATUS":0,"COMM_TIMESTAMP":"01/01/24 00:00","CITY":"Pereiro","UTR_NAME":"EEAB-04","COMM_TYPE":"Roteador Novus 4G","PROTOCOL_TYPE":"MQTT","LAT":-6.020318,"LNG":-38.649768},{"UN":"UNBBJ","UTR_COD":512,"COMM_STATUS":0,"COMM_TIMESTAMP":"01/01/24 00:00","CITY":"Pereiro","UTR_NAME":"EEAB-05","COMM_TYPE":"Radio Orbit com UTR 516","PROTOCOL_TYPE":"OPC UA","LAT":-6.043397,"LNG":-38.510485},{"UN":"UNBBJ","UTR_COD":513,"COMM_STATUS":0,"COMM_TIMESTAMP":"01/01/24 00:00","CITY":"Pereiro","UTR_NAME":"EEAB-06","COMM_TYPE":"Radio Orbit com UTR 516","PROTOCOL_TYPE":"OPC UA","LAT":-6.045578,"LNG":-38.521237},{"UN":"UNBBJ","UTR_COD":514,"COMM_STATUS":0,"COMM_TIMESTAMP":"01/01/24 00:00","CITY":"Pereiro","UTR_NAME":"EEAB-07","COMM_TYPE":"Radio Orbit com UTR 516","PROTOCOL_TYPE":"OPC UA","LAT":-6.043389,"LNG":-38.510509},{"UN":"UNBBJ","UTR_COD":515,"COMM_STATUS":0,"COMM_TIMESTAMP":"01/01/24 00:00","CITY":"Pereiro","UTR_NAME":"EECS-01 Captação Açude Adauto Bezerra","COMM_TYPE":"Roteador Novus 4G","PROTOCOL_TYPE":"MQTT","LAT":-6.037642,"LNG":-38.448306},{"UN":"UNBBJ","UTR_COD":516,"COMM_STATUS":0,"COMM_TIMESTAMP":"01/01/24 00:00","CITY":"Pereiro","UTR_NAME":"ETA Pereiro","COMM_TYPE":"Link Getic + Radio Orbit","PROTOCOL_TYPE":"OPC UA","LAT":-6.049250,"LNG":-38.460561},{"UN":"UNBBJ","UTR_COD":517,"COMM_STATUS":0,"COMM_TIMESTAMP":"01/01/24 00:00","CITY":"Pereiro","UTR_NAME":"RAP-02","COMM_TYPE":"Roteador Novus 4G","PROTOCOL_TYPE":"MQTT","LAT":-6.054098,"LNG":-38.455278},{"UN":"UNBBA","UTR_COD":550,"COMM_STATUS":0,"COMM_TIMESTAMP":"01/01/24 00:00","CITY":"Ibicuitinga","UTR_NAME":"ETA Ibicuitinga","COMM_TYPE":"Link da Getic","PROTOCOL_TYPE":"OPC UA","LAT":-5.141531,"LNG":-38.572350},{"UN":"UNBBA","UTR_COD":551,"COMM_STATUS":0,"COMM_TIMESTAMP":"01/01/24 00:00","CITY":"Ibicuitinga","UTR_NAME":"PR-01","COMM_TYPE":"IOT2050","PROTOCOL_TYPE":"OPC UA","LAT":-5.143112,"LNG":-38.572350},{"UN":"UNBBA","UTR_COD":552,"COMM_STATUS":0,"COMM_TIMESTAMP":"01/01/24 00:00","CITY":"Ibicuitinga","UTR_NAME":"EEAT-03","COMM_TYPE":"Roteador Novus 4G + Elsys","PROTOCOL_TYPE":"MQTT","LAT":-5.115420,"LNG":-38.560692},{"UN":"UNBBA","UTR_COD":553,"COMM_STATUS":0,"COMM_TIMESTAMP":"01/01/24 00:00","CITY":"Ibicuitinga","UTR_NAME":"EEAT-04","COMM_TYPE":"Roteador Novus 4G","PROTOCOL_TYPE":"MQTT","LAT":-5.004044,"LNG":-38.561691},{"UN":"UNBBA","UTR_COD":554,"COMM_STATUS":0,"COMM_TIMESTAMP":"01/01/24 00:00","CITY":"Ibicuitinga","UTR_NAME":"REL-03","COMM_TYPE":"EPZ_048353","PROTOCOL_TYPE":"MQTT","LAT":-5.009942,"LNG":-38.511400},{"UN":"UNBBA","UTR_COD":555,"COMM_STATUS":0,"COMM_TIMESTAMP":"01/01/24 00:00","CITY":"Ibicuitinga","UTR_NAME":"Sede Ibicuitinga ","COMM_TYPE":"Roteador Novus 4G","PROTOCOL_TYPE":"MQTT","LAT":-4.978988,"LNG":-38.628971},{"UN":"UNBBA","UTR_COD":556,"COMM_STATUS":0,"COMM_TIMESTAMP":"01/01/24 00:00","CITY":"Ibicuitinga","UTR_NAME":"EEAT-05","COMM_TYPE":"Roteador Novus 4G","PROTOCOL_TYPE":"MQTT","LAT":-4.971509,"LNG":-38.637684},{"UN":"UNBBA","UTR_COD":557,"COMM_STATUS":0,"COMM_TIMESTAMP":"01/01/24 00:00","CITY":"Ibicuitinga","UTR_NAME":"EEAT-06","COMM_TYPE":"Roteador Novus 4G","PROTOCOL_TYPE":"MQTT","LAT":-4.963902,"LNG":-38.635971},{"UN":"UNBBA","UTR_COD":558,"COMM_STATUS":0,"COMM_TIMESTAMP":"01/01/24 00:00","CITY":"Ibicuitinga","UTR_NAME":"EEAT-07","COMM_TYPE":"Roteador Novus 4G","PROTOCOL_TYPE":"OPC UA","LAT":-4.976659,"LNG":-38.640987},{"UN":"UNBBA","UTR_COD":559,"COMM_STATUS":0,"COMM_TIMESTAMP":"01/01/24 00:00","CITY":"Ibicuitinga","UTR_NAME":"REL-08","COMM_TYPE":"EPZ_048294","PROTOCOL_TYPE":"MQTT","LAT":-4.978051,"LNG":-38.647717},{"UN":"UNBBA","UTR_COD":560,"COMM_STATUS":0,"COMM_TIMESTAMP":"01/01/24 00:00","CITY":"Quixadá","UTR_NAME":"EECS-01 Açude Pedas Brancas","COMM_TYPE":null,"PROTOCOL_TYPE":"OPCUA ","LAT":-5.106913,"LNG":-38.906745},{"UN":"UNBBA","UTR_COD":561,"COMM_STATUS":0,"COMM_TIMESTAMP":"01/01/24 00:00","CITY":"Quixadá","UTR_NAME":"EEAB-01","COMM_TYPE":"IOT2050","PROTOCOL_TYPE":"OPCUA ","LAT":-5.101667,"LNG":-38.907222},{"UN":"UNBBA","UTR_COD":562,"COMM_STATUS":0,"COMM_TIMESTAMP":"01/01/24 00:00","CITY":"Quixadá","UTR_NAME":"ETA Quixadá","COMM_TYPE":"IOT2050","PROTOCOL_TYPE":"OPCUA ","LAT":-4.961250,"LNG":-39.025944},{"UN":"UNBBA","UTR_COD":563,"COMM_STATUS":0,"COMM_TIMESTAMP":"01/01/24 00:00","CITY":"Quixadá","UTR_NAME":"EEAT-03 RAP-04","COMM_TYPE":"IOT2050","PROTOCOL_TYPE":"MQTT","LAT":-4.977169,"LNG":-39.016471},{"UN":"UNBBA","UTR_COD":564,"COMM_STATUS":0,"COMM_TIMESTAMP":"01/01/24 00:00","CITY":"Quixadá","UTR_NAME":"EEAT-04 REN-01","COMM_TYPE":"IOT2050","PROTOCOL_TYPE":"MQTT","LAT":-4.972553,"LNG":-39.029879},{"UN":"UNBBA","UTR_COD":565,"COMM_STATUS":0,"COMM_TIMESTAMP":"01/01/24 00:00","CITY":"Quixadá","UTR_NAME":"RAP-05, EEAT-06, EEAT-07, EEAT-08","COMM_TYPE":"IOT2050","PROTOCOL_TYPE":"MQTT","LAT":-4.957540,"LNG":-39.058943},{"UN":"UNBBA","UTR_COD":566,"COMM_STATUS":0,"COMM_TIMESTAMP":"01/01/24 00:00","CITY":"Quixadá","UTR_NAME":"RAP-02 e RAP-03 Quixadá","COMM_TYPE":"EPZ_048328","PROTOCOL_TYPE":"MQTT","LAT":-4.966519,"LNG":-39.021969},{"UN":"UNBBA","UTR_COD":567,"COMM_STATUS":0,"COMM_TIMESTAMP":"01/01/24 00:00","CITY":"Quixadá","UTR_NAME":"RAP-01 Fazenda do Japão","COMM_TYPE":"EPZ_048278","PROTOCOL_TYPE":"MQTT","LAT":-5.016305,"LNG":-38.973200},{"UN":"UNBBA","UTR_COD":568,"COMM_STATUS":0,"COMM_TIMESTAMP":"01/01/24 00:00","CITY":"Ocara","UTR_NAME":"Captação Açude Aracoiaba","COMM_TYPE":"IOT2050","PROTOCOL_TYPE":"MQTT","LAT":-4.405385,"LNG":-38.696867},{"UN":"UNBBA","UTR_COD":569,"COMM_STATUS":0,"COMM_TIMESTAMP":"01/01/24 00:00","CITY":"Ocara","UTR_NAME":"ETA Ideal","COMM_TYPE":"Roteador Novus 4G","PROTOCOL_TYPE":"OPC UA","LAT":-4.429404,"LNG":-38.671732},{"UN":"UNBBA","UTR_COD":570,"COMM_STATUS":0,"COMM_TIMESTAMP":"01/01/24 00:00","CITY":"Ocara","UTR_NAME":"EEAT Capivara","COMM_TYPE":"IOT2050","PROTOCOL_TYPE":"MQTT","LAT":-4.451948,"LNG":-38.655700},{"UN":"UNBBA","UTR_COD":571,"COMM_STATUS":0,"COMM_TIMESTAMP":"01/01/24 00:00","CITY":"Ocara","UTR_NAME":"EEAT Cajarana","COMM_TYPE":null,"PROTOCOL_TYPE":null,"LAT":-4.489352,"LNG":-38.604340},{"UN":"UNBBA","UTR_COD":572,"COMM_STATUS":0,"COMM_TIMESTAMP":"01/01/24 00:00","CITY":"Ocara","UTR_NAME":"REL-05","COMM_TYPE":null,"PROTOCOL_TYPE":null,"LAT":-4.488442,"LNG":-38.590928},{"UN":"UNBBA","UTR_COD":573,"COMM_STATUS":0,"COMM_TIMESTAMP":"01/01/24 00:00","CITY":"Ocara","UTR_NAME":"REL-06","COMM_TYPE":null,"PROTOCOL_TYPE":null,"LAT":-4.508122,"LNG":-38.611520},{"UN":"UNBSI","UTR_COD":600,"COMM_STATUS":0,"COMM_TIMESTAMP":"01/01/24 00:00","CITY":"Tianguá","UTR_NAME":"ETA Jaburu Captação","COMM_TYPE":"PAINEL UTR","PROTOCOL_TYPE":"OPCUA ","LAT":-3.837778,"LNG":-41.095278},{"UN":"UNBSI","UTR_COD":601,"COMM_STATUS":0,"COMM_TIMESTAMP":"01/01/24 00:00","CITY":"Tianguá","UTR_NAME":"ETA Jaburu Elevatórias","COMM_TYPE":"PAINEL UTR","PROTOCOL_TYPE":"OPCUA ","LAT":-3.837778,"LNG":-41.095278},{"UN":"UNBSI","UTR_COD":602,"COMM_STATUS":0,"COMM_TIMESTAMP":"01/01/24 00:00","CITY":"Caruataí","UTR_NAME":"EEAT-03 Caruataí","COMM_TYPE":"PAINEL UTR","PROTOCOL_TYPE":"OPCUA ","LAT":-3.837556,"LNG":-40.975944},{"UN":"UNBSI","UTR_COD":603,"COMM_STATUS":0,"COMM_TIMESTAMP":"01/01/24 00:00","CITY":"Ubajara","UTR_NAME":"EEAT-07 Ubajara","COMM_TYPE":"PAINEL UTR","PROTOCOL_TYPE":"OPCUA ","LAT":-3.847389,"LNG":-40.917056},{"UN":"UNBSI","UTR_COD":604,"COMM_STATUS":0,"COMM_TIMESTAMP":"01/01/24 00:00","CITY":"Ubajara","UTR_NAME":"EEAT-04 Ubajara","COMM_TYPE":"PAINEL UTR","PROTOCOL_TYPE":"OPCUA ","LAT":-3.868533,"LNG":-40.915689},{"UN":"UNBSI","UTR_COD":605,"COMM_STATUS":0,"COMM_TIMESTAMP":"01/01/24 00:00","CITY":"Ibiapina","UTR_NAME":"REL-11 Ibiapina","COMM_TYPE":"EPZ SOLAR + NOVUS + CLP","PROTOCOL_TYPE":null,"LAT":-3.921250,"LNG":-40.889931},{"UN":"UNBSI","UTR_COD":606,"COMM_STATUS":0,"COMM_TIMESTAMP":"01/01/24 00:00","CITY":"Ibiapina","UTR_NAME":"EEAT-05 Ibiapina","COMM_TYPE":"PAINEL UTR","PROTOCOL_TYPE":"OPCUA ","LAT":-3.934477,"LNG":-40.891191},{"UN":"UNBSI","UTR_COD":607,"COMM_STATUS":0,"COMM_TIMESTAMP":"01/01/24 00:00","CITY":"São Benedito","UTR_NAME":"RAP-10 S. Benedito","COMM_TYPE":"EPZ SOLAR ATIVA","PROTOCOL_TYPE":null,"LAT":-4.033889,"LNG":-40.868056},{"UN":"UNBSI","UTR_COD":608,"COMM_STATUS":0,"COMM_TIMESTAMP":"01/01/24 00:00","CITY":"São Benedito","UTR_NAME":"REL-18 S. Benedito","COMM_TYPE":"EPZ SOLAR ATIVA","PROTOCOL_TYPE":null,"LAT":-4.042000,"LNG":-40.865917},{"UN":"UNBSI","UTR_COD":609,"COMM_STATUS":0,"COMM_TIMESTAMP":"01/01/24 00:00","CITY":"Carnaubal","UTR_NAME":"RAP-11 Carnaubal","COMM_TYPE":"EPZ SOLAR ATIVA","PROTOCOL_TYPE":null,"LAT":-4.163583,"LNG":-40.921833},{"UN":"UNBSI","UTR_COD":610,"COMM_STATUS":0,"COMM_TIMESTAMP":"01/01/24 00:00","CITY":"Inhuçu","UTR_NAME":"EEAT-06 Inhuçú","COMM_TYPE":"PAINEL UTR","PROTOCOL_TYPE":"OPCUA ","LAT":-4.121256,"LNG":-40.851439},{"UN":"UNBSI","UTR_COD":611,"COMM_STATUS":0,"COMM_TIMESTAMP":"01/01/24 00:00","CITY":"Guaraciaba","UTR_NAME":"RAP-13 Guaraciaba","COMM_TYPE":"EPZ SOLAR ATIVA","PROTOCOL_TYPE":null,"LAT":-4.157542,"LNG":-40.761758},{"UN":"UNBSI","UTR_COD":612,"COMM_STATUS":0,"COMM_TIMESTAMP":"01/01/24 00:00","CITY":"Cedro","UTR_NAME":"RAP-03 / RAP-19 CEDRO","COMM_TYPE":"PAINEL UTR","PROTOCOL_TYPE":null,"LAT":-3.802711,"LNG":-40.980122},{"UN":"UNBSI","UTR_COD":613,"COMM_STATUS":0,"COMM_TIMESTAMP":"01/01/24 00:00","CITY":"Tianguá","UTR_NAME":"ENTRONCAMENTO TIANGUÁ/VIÇOSA (VELHO)","COMM_TYPE":"PAINEL UTR","PROTOCOL_TYPE":null,"LAT":-3.735238,"LNG":-40.991591},{"UN":"UNBSI","UTR_COD":614,"COMM_STATUS":0,"COMM_TIMESTAMP":"01/01/24 00:00","CITY":"Tianguá","UTR_NAME":"RAP-22 / EEAT-11 LOTEAMENTO TIANGUÁ","COMM_TYPE":"PAINEL UTR","PROTOCOL_TYPE":null,"LAT":0,"LNG":0},{"UN":"UNBSI","UTR_COD":615,"COMM_STATUS":0,"COMM_TIMESTAMP":"01/01/24 00:00","CITY":"Tianguá","UTR_NAME":"REL-40 LOTEAMENTO TIANGUÁ","COMM_TYPE":"EPZ SOLAR ATIVA","PROTOCOL_TYPE":null,"LAT":0,"LNG":0},{"UN":"UNBSI","UTR_COD":616,"COMM_STATUS":0,"COMM_TIMESTAMP":"01/01/24 00:00","CITY":"Tianguá","UTR_NAME":"REL-04 REGIONAL TIANGUÁ","COMM_TYPE":"EPZ SOLAR + NOVUS + CLP","PROTOCOL_TYPE":null,"LAT":-3.721806,"LNG":-40.989889},{"UN":"UNBSI","UTR_COD":617,"COMM_STATUS":0,"COMM_TIMESTAMP":"01/01/24 00:00","CITY":"Tianguá","UTR_NAME":"RAP-04 TIANGUÁ","COMM_TYPE":"EPZ SOLAR + NOVUS + CLP","PROTOCOL_TYPE":null,"LAT":-3.720333,"LNG":-40.987028},{"UN":"UNBSI","UTR_COD":618,"COMM_STATUS":0,"COMM_TIMESTAMP":"01/01/24 00:00","CITY":"Viçosa","UTR_NAME":"RAP-05 VIÇOSA","COMM_TYPE":"EPZ SOLAR ATIVA","PROTOCOL_TYPE":null,"LAT":-3.582778,"LNG":-41.097222},{"UN":"UNBSI","UTR_COD":619,"COMM_STATUS":0,"COMM_TIMESTAMP":"01/01/24 00:00","CITY":"Viçosa","UTR_NAME":"RAP-06 EERD VIÇOSA","COMM_TYPE":"EPZ SOLAR ATIVA","PROTOCOL_TYPE":null,"LAT":-3.564472,"LNG":-41.093528},{"UN":"UNBSI","UTR_COD":620,"COMM_STATUS":0,"COMM_TIMESTAMP":"01/01/24 00:00","CITY":"Viçosa","UTR_NAME":"ENTRONCAMENTO TIANGUÁ/VIÇOSA (NOVO) ","COMM_TYPE":"PAINEL UTR","PROTOCOL_TYPE":null,"LAT":-3.731961,"LNG":-40.986555},{"UN":"UNBSI","UTR_COD":621,"COMM_STATUS":0,"COMM_TIMESTAMP":"01/01/24 00:00","CITY":"Tianguá","UTR_NAME":"EELF ETA Jaburu","COMM_TYPE":"PAINEL UTR","PROTOCOL_TYPE":"OPCUA ","LAT":-3.837778,"LNG":-41.095278},{"UN":"UNBAJ","UTR_COD":650,"COMM_STATUS":0,"COMM_TIMESTAMP":"01/01/24 00:00","CITY":"Alagoinha","UTR_NAME":"ETA Alagoinha","COMM_TYPE":null,"PROTOCOL_TYPE":null,"LAT":-7.085556,"LNG":-40.173333},{"UN":"UNBAJ","UTR_COD":651,"COMM_STATUS":0,"COMM_TIMESTAMP":"01/01/24 00:00","CITY":"Alagoinha","UTR_NAME":"EECS-01 Captação João Luis","COMM_TYPE":null,"PROTOCOL_TYPE":null,"LAT":-7.080790,"LNG":-40.176891},{"UN":"UNBAJ","UTR_COD":652,"COMM_STATUS":0,"COMM_TIMESTAMP":"01/01/24 00:00","CITY":"Alagoinha","UTR_NAME":"PT-05 RSE-04","COMM_TYPE":"UTR","PROTOCOL_TYPE":null,"LAT":-7.348750,"LNG":-40.141444},{"UN":"UNBAJ","UTR_COD":653,"COMM_STATUS":0,"COMM_TIMESTAMP":"01/01/24 00:00","CITY":"Alagoinha","UTR_NAME":"REL-03","COMM_TYPE":"UTR","PROTOCOL_TYPE":null,"LAT":-7.212964,"LNG":-40.139356},{"UN":"UNBAJ","UTR_COD":654,"COMM_STATUS":0,"COMM_TIMESTAMP":"01/01/24 00:00","CITY":"Alagoinha","UTR_NAME":"EEAT-06","COMM_TYPE":"UTR","PROTOCOL_TYPE":null,"LAT":-7.214964,"LNG":-40.143819},{"UN":"UNBAJ","UTR_COD":655,"COMM_STATUS":0,"COMM_TIMESTAMP":"01/01/24 00:00","CITY":"Alagoinha","UTR_NAME":"EEAT-07","COMM_TYPE":"UTR","PROTOCOL_TYPE":null,"LAT":-7.216917,"LNG":-40.146061},{"UN":"UNBAJ","UTR_COD":656,"COMM_STATUS":0,"COMM_TIMESTAMP":"01/01/24 00:00","CITY":"Alagoinha","UTR_NAME":"FIT Salitre","COMM_TYPE":"UTR","PROTOCOL_TYPE":null,"LAT":-7.287625,"LNG":-40.456589},{"UN":"UNBAJ","UTR_COD":657,"COMM_STATUS":0,"COMM_TIMESTAMP":"01/01/24 00:00","CITY":"Alagoinha","UTR_NAME":"FIT Campos Sales","COMM_TYPE":"UTR","PROTOCOL_TYPE":null,"LAT":-7.048111,"LNG":-40.368139},{"UN":"UNBAJ","UTR_COD":658,"COMM_STATUS":0,"COMM_TIMESTAMP":"01/01/24 00:00","CITY":"Alagoinha","UTR_NAME":"FIT 02 Campos Sales","COMM_TYPE":"EPZ SOLAR ATIVA","PROTOCOL_TYPE":"MQTT","LAT":-7.074251,"LNG":-40.347385},{"UN":"UNBAJ","UTR_COD":660,"COMM_STATUS":0,"COMM_TIMESTAMP":"01/01/24 00:00","CITY":"Antonina Norte","UTR_NAME":"EECS-01 Captação Açude Mamoeiro","COMM_TYPE":"UTR","PROTOCOL_TYPE":"OPCUA ","LAT":0,"LNG":0},{"UN":"UNBAJ","UTR_COD":661,"COMM_STATUS":0,"COMM_TIMESTAMP":"01/01/24 00:00","CITY":"Antonina Norte","UTR_NAME":"ETA-02 Mamoeiro (EEAT-02/03)","COMM_TYPE":"UTR","PROTOCOL_TYPE":"OPCUA ","LAT":0,"LNG":0},{"UN":"UNBAJ","UTR_COD":662,"COMM_STATUS":0,"COMM_TIMESTAMP":"01/01/24 00:00","CITY":"Antonina Norte","UTR_NAME":"RAP-04","COMM_TYPE":"EPZ SOLAR ATIVA","PROTOCOL_TYPE":"MQTT","LAT":-6.784222,"LNG":-39.989611},{"UN":"UNBSA","UTR_COD":701,"COMM_STATUS":0,"COMM_TIMESTAMP":"01/01/24 00:00","CITY":"Juazeiro do Norte","UTR_NAME":"Timbauba (PT-01-03-04-05-06-07-08-31)","COMM_TYPE":"Roteador Novus 4G","PROTOCOL_TYPE":"OPC UA","LAT":-7.228000,"LNG":-39.308009},{"UN":"UNBSA","UTR_COD":702,"COMM_STATUS":0,"COMM_TIMESTAMP":"01/01/24 00:00","CITY":"Juazeiro do Norte","UTR_NAME":"Regional (PT-29-30)","COMM_TYPE":"Link Getic","PROTOCOL_TYPE":"OPC UA","LAT":-7.228459,"LNG":-39.320914},{"UN":"UNBSA","UTR_COD":703,"COMM_STATUS":0,"COMM_TIMESTAMP":"01/01/24 00:00","CITY":"Juazeiro do Norte","UTR_NAME":"Comercial","COMM_TYPE":"IOT2050","PROTOCOL_TYPE":"OPC UA","LAT":-7.207493,"LNG":-39.316045},{"UN":"UNBSA","UTR_COD":704,"COMM_STATUS":0,"COMM_TIMESTAMP":"01/01/24 00:00","CITY":"Juazeiro do Norte","UTR_NAME":"Lagoa Seca","COMM_TYPE":"Link Getic","PROTOCOL_TYPE":"OPC UA","LAT":-7.240881,"LNG":-39.323286},{"UN":"UNBSA","UTR_COD":705,"COMM_STATUS":0,"COMM_TIMESTAMP":"01/01/24 00:00","CITY":"Juazeiro do Norte","UTR_NAME":"Horto 1 (PT-20)","COMM_TYPE":"IOT2050","PROTOCOL_TYPE":"OPC UA","LAT":-7.199816,"LNG":-39.324643},{"UN":"UNBSA","UTR_COD":706,"COMM_STATUS":0,"COMM_TIMESTAMP":"01/01/24 00:00","CITY":"Juazeiro do Norte","UTR_NAME":"Horto 2","COMM_TYPE":"Roteador Novus 4G","PROTOCOL_TYPE":"MQTT","LAT":-7.186111,"LNG":-39.332951},{"UN":"UNBSA","UTR_COD":707,"COMM_STATUS":0,"COMM_TIMESTAMP":"01/01/24 00:00","CITY":"Juazeiro do Norte","UTR_NAME":"Horto 3","COMM_TYPE":"IOT2050","PROTOCOL_TYPE":"OPC UA","LAT":-7.179194,"LNG":-39.330653},{"UN":"UNBSA","UTR_COD":708,"COMM_STATUS":0,"COMM_TIMESTAMP":"01/01/24 00:00","CITY":"Juazeiro do Norte","UTR_NAME":"APUC (PT-14-37-44)","COMM_TYPE":"Link Getic","PROTOCOL_TYPE":"OPC UA","LAT":-7.243842,"LNG":-39.317629},{"UN":"UNBSA","UTR_COD":710,"COMM_STATUS":0,"COMM_TIMESTAMP":"01/01/24 00:00","CITY":"Juazeiro do Norte","UTR_NAME":"Vaquejada 2 (PT-27-34-38-39-41-60)","COMM_TYPE":"Link Getic","PROTOCOL_TYPE":"OPC UA","LAT":-7.248921,"LNG":-39.298911},{"UN":"UNBSA","UTR_COD":711,"COMM_STATUS":0,"COMM_TIMESTAMP":"01/01/24 00:00","CITY":"Juazeiro do Norte","UTR_NAME":"Aeroporto (PT-18-23)","COMM_TYPE":"Rádio Transnet900 com UTR 22","PROTOCOL_TYPE":"OPC UA","LAT":-7.214203,"LNG":-39.275656},{"UN":"UNBSA","UTR_COD":712,"COMM_STATUS":0,"COMM_TIMESTAMP":"01/01/24 00:00","CITY":"Juazeiro do Norte","UTR_NAME":"Mutirão (PT-29-21-22-36-45-47-51)","COMM_TYPE":"Link Getic","PROTOCOL_TYPE":"OPC UA","LAT":-7.253108,"LNG":-39.336070},{"UN":"UNBSA","UTR_COD":713,"COMM_STATUS":0,"COMM_TIMESTAMP":"01/01/24 00:00","CITY":"Juazeiro do Norte","UTR_NAME":"Novo Juazeiro","COMM_TYPE":"IOT2050","PROTOCOL_TYPE":"OPC UA","LAT":-7.223409,"LNG":-39.294936},{"UN":"UNBSA","UTR_COD":714,"COMM_STATUS":0,"COMM_TIMESTAMP":"01/01/24 00:00","CITY":"Juazeiro do Norte","UTR_NAME":"São José (PT-24-40-59)","COMM_TYPE":"Roteador Novus 4G","PROTOCOL_TYPE":"MQTT","LAT":0,"LNG":0},{"UN":"UNBSA","UTR_COD":715,"COMM_STATUS":0,"COMM_TIMESTAMP":"01/01/24 00:00","CITY":"Juazeiro do Norte","UTR_NAME":"Palmeirinha - RAP18 (PT-42-50)","COMM_TYPE":"Roteador Novus 4G","PROTOCOL_TYPE":"MQTT","LAT":-7.161375,"LNG":-39.306895},{"UN":"UNBSA","UTR_COD":716,"COMM_STATUS":0,"COMM_TIMESTAMP":"01/01/24 00:00","CITY":"Juazeiro do Norte","UTR_NAME":"Leandro Bezerra (PT-65)","COMM_TYPE":"Link Getic","PROTOCOL_TYPE":"OPC UA","LAT":-7.175303,"LNG":-39.299805},{"UN":"UNBSA","UTR_COD":717,"COMM_STATUS":0,"COMM_TIMESTAMP":"01/01/24 00:00","CITY":"Juazeiro do Norte","UTR_NAME":"Betolândia (PT-26-46-61)","COMM_TYPE":null,"PROTOCOL_TYPE":"MQTT","LAT":0,"LNG":0},{"UN":"UNBSA","UTR_COD":722,"COMM_STATUS":0,"COMM_TIMESTAMP":"01/01/24 00:00","CITY":"Juazeiro do Norte","UTR_NAME":"Aeroporto 2 (PT-70)","COMM_TYPE":"Roteador Novus 4G","PROTOCOL_TYPE":"OPC UA","LAT":0,"LNG":0},{"UN":"UNBSA","UTR_COD":723,"COMM_STATUS":0,"COMM_TIMESTAMP":"01/01/24 00:00","CITY":"Juazeiro do Norte","UTR_NAME":"Terrara (PT-73)","COMM_TYPE":"Roteador Novus 4G","PROTOCOL_TYPE":"OPC UA","LAT":-7.258684,"LNG":-39.305510},{"UN":"UNBSA","UTR_COD":724,"COMM_STATUS":0,"COMM_TIMESTAMP":"01/01/24 00:00","CITY":"Juazeiro do Norte","UTR_NAME":"Lagoa Seca 2 (PT-09)","COMM_TYPE":"Link Getic","PROTOCOL_TYPE":"OPC UA","LAT":-7.240881,"LNG":-39.323286},{"UN":"UNBSA","UTR_COD":725,"COMM_STATUS":0,"COMM_TIMESTAMP":"01/01/24 00:00","CITY":"Juazeiro do Norte","UTR_NAME":"Triângulo","COMM_TYPE":"Roteador Novus 4G","PROTOCOL_TYPE":"OPC UA","LAT":-7.235575,"LNG":-39.328402},{"UN":"UNBMO","UTR_COD":800,"COMM_STATUS":0,"COMM_TIMESTAMP":"01/01/24 00:00","CITY":"Redenção","UTR_NAME":"ETA REDENÇÃO","COMM_TYPE":"Roteador Novus 4G","PROTOCOL_TYPE":"MQTT","LAT":-4.191653,"LNG":-38.794467},{"UN":"UNBMO","UTR_COD":801,"COMM_STATUS":0,"COMM_TIMESTAMP":"01/01/24 00:00","CITY":"Redenção","UTR_NAME":"BOOSTER BARRA NOVA","COMM_TYPE":"Roteador Novus 4G","PROTOCOL_TYPE":"MQTT","LAT":-4.193280,"LNG":-38.784459},{"UN":"UNBMO","UTR_COD":802,"COMM_STATUS":0,"COMM_TIMESTAMP":"01/01/24 00:00","CITY":"Redenção","UTR_NAME":"RAP 02","COMM_TYPE":"Roteador Novus 4G","PROTOCOL_TYPE":null,"LAT":-4.221111,"LNG":-38.734167},{"UN":"UNBMO","UTR_COD":803,"COMM_STATUS":0,"COMM_TIMESTAMP":"01/01/24 00:00","CITY":"Redenção","UTR_NAME":"BOOSTER ANTONIO DIOGO","COMM_TYPE":"Roteador Novus 4G","PROTOCOL_TYPE":"MQTT","LAT":-4.226234,"LNG":-38.727910},{"UN":"UNBMO","UTR_COD":804,"COMM_STATUS":0,"COMM_TIMESTAMP":"01/01/24 00:00","CITY":"Redenção","UTR_NAME":"BOOSTER SANTA RITA","COMM_TYPE":"Roteador Novus 4G","PROTOCOL_TYPE":"MQTT","LAT":-4.221985,"LNG":-38.730165},{"UN":"UNBMO","UTR_COD":805,"COMM_STATUS":0,"COMM_TIMESTAMP":"01/01/24 00:00","CITY":"Redenção","UTR_NAME":"BOOSTER URUCUZAL","COMM_TYPE":"Roteador Novus 4G","PROTOCOL_TYPE":null,"LAT":-4.311388,"LNG":-38.742983},{"UN":"UNBMO","UTR_COD":806,"COMM_STATUS":0,"COMM_TIMESTAMP":"01/01/24 00:00","CITY":"Redenção","UTR_NAME":"BOOSTER BARREIRA","COMM_TYPE":"Roteador Novus 4G","PROTOCOL_TYPE":"MQTT","LAT":-4.222558,"LNG":-38.706526},{"UN":"UNBMO","UTR_COD":807,"COMM_STATUS":0,"COMM_TIMESTAMP":"01/01/24 00:00","CITY":"Redenção","UTR_NAME":"RAP 10","COMM_TYPE":"Roteador Novus 4G","PROTOCOL_TYPE":null,"LAT":-4.220570,"LNG":-38.706980},{"UN":"UNBMO","UTR_COD":808,"COMM_STATUS":0,"COMM_TIMESTAMP":"01/01/24 00:00","CITY":"Redenção","UTR_NAME":"BOOSTER TAMANDUÁ","COMM_TYPE":"Roteador Novus 4G","PROTOCOL_TYPE":null,"LAT":-4.224651,"LNG":-38.702738},{"UN":"UNBMO","UTR_COD":809,"COMM_STATUS":0,"COMM_TIMESTAMP":"01/01/24 00:00","CITY":"Redenção","UTR_NAME":"BOOSTER RIACHÃO","COMM_TYPE":"Roteador Novus 4G","PROTOCOL_TYPE":"MQTT","LAT":-4.216553,"LNG":-38.700921},{"UN":"UNBMO","UTR_COD":810,"COMM_STATUS":0,"COMM_TIMESTAMP":"01/01/24 00:00","CITY":"Redenção","UTR_NAME":"BOOSTER CARRO ATOLADO","COMM_TYPE":"Roteador Novus 4G","PROTOCOL_TYPE":"MQTT","LAT":-4.273635,"LNG":-38.683808},{"UN":"UNBMO","UTR_COD":813,"COMM_STATUS":0,"COMM_TIMESTAMP":"01/01/24 00:00","CITY":"Redenção","UTR_NAME":"ETA SUSTO","COMM_TYPE":"Roteador Novus 4G","PROTOCOL_TYPE":"MQTT","LAT":-4.334059,"LNG":-38.722429},{"UN":"UNBMO","UTR_COD":814,"COMM_STATUS":0,"COMM_TIMESTAMP":"01/01/24 00:00","CITY":"Redenção","UTR_NAME":"CAPTAÇÃO ETA SUSTO","COMM_TYPE":null,"PROTOCOL_TYPE":null,"LAT":0,"LNG":0},{"UN":"UNBMO","UTR_COD":815,"COMM_STATUS":0,"COMM_TIMESTAMP":"01/01/24 00:00","CITY":"Palmácia","UTR_NAME":"CAPTAÇÃO AÇUDE GERMINAL","COMM_TYPE":"Rádio Transnet900 com UTR 816","PROTOCOL_TYPE":"OPC UA","LAT":-4.180892,"LNG":-38.865539},{"UN":"UNBMO","UTR_COD":816,"COMM_STATUS":0,"COMM_TIMESTAMP":"01/01/24 00:00","CITY":"Palmácia","UTR_NAME":"ETA GERMINAL","COMM_TYPE":"Link Getic","PROTOCOL_TYPE":"OPC UA","LAT":-4.178751,"LNG":-38.864069},{"UN":"UNBMO","UTR_COD":817,"COMM_STATUS":0,"COMM_TIMESTAMP":"01/01/24 00:00","CITY":"Palmácia","UTR_NAME":"RAP-04","COMM_TYPE":"Roteador Novus 4G","PROTOCOL_TYPE":"MQTT","LAT":-4.148400,"LNG":-38.852378},{"UN":"UNBMO","UTR_COD":818,"COMM_STATUS":0,"COMM_TIMESTAMP":"01/01/24 00:00","CITY":"Pacoti","UTR_NAME":"ETA Pacoti","COMM_TYPE":"Roteador Novus 4G","PROTOCOL_TYPE":"OPC UA","LAT":-4.226424,"LNG":-38.922098},{"UN":"UNBMO","UTR_COD":819,"COMM_STATUS":0,"COMM_TIMESTAMP":"01/01/24 00:00","CITY":"Pacoti","UTR_NAME":"RAP-02","COMM_TYPE":"Roteador Novus 4G","PROTOCOL_TYPE":"MQTT","LAT":-4.227235,"LNG":-38.924709}]