{"dt":"20240503T09:49:04","type":"FeatureCollection","features":[{"type":"Feature","properties":{"UTR":200,"COMM_STS":0,"COMM_TS":"01/01/2024 00:00","UN":"UNBML","CITY":"Chorozinho","UTRNAME":"ETA Triângulo","COMM_TYPE":"Link Getic","PROT_TYPE":"OPC UA"},"geometry":{"type":"Point","coordinates":[-38.517578,-4.075827]}},{"type":"Feature","properties":{"UTR":201,"COMM_STS":0,"COMM_TS":"01/01/2024 00:00","UN":"UNBML","CITY":"Chorozinho","UTRNAME":"Timbauba Triangulo","COMM_TYPE":"Roteador Novus 4G","PROT_TYPE":"MQTT"},"geometry":{"type":"Point","coordinates":[-38.460739,-4.353625]}},{"type":"Feature","properties":{"UTR":202,"COMM_STS":0,"COMM_TS":"01/01/2024 00:00","UN":"UNBML","CITY":"Chorozinho","UTRNAME":"Captação Canal Integração","COMM_TYPE":"Roteador Novus 4G","PROT_TYPE":"MQTT"},"geometry":{"type":"Point","coordinates":[-38.369721,-4.306329]}},{"type":"Feature","properties":{"UTR":203,"COMM_STS":0,"COMM_TS":"01/01/2024 00:00","UN":"UNBMO","CITY":"Aracoiaba","UTRNAME":"ETA Aracoiaba (RAP-01)","COMM_TYPE":"Link Getic","PROT_TYPE":"OPC UA"},"geometry":{"type":"Point","coordinates":[-38.717125,-4.401272]}},{"type":"Feature","properties":{"UTR":204,"COMM_STS":0,"COMM_TS":"01/01/2024 00:00","UN":"UNBMO","CITY":"Aracoiaba","UTRNAME":"RAP-02 (eeat-02)","COMM_TYPE":"Roteador Novus 4G","PROT_TYPE":"OPC UA"},"geometry":{"type":"Point","coordinates":[-38.756747,-4.395325]}},{"type":"Feature","properties":{"UTR":205,"COMM_STS":0,"COMM_TS":"01/01/2024 00:00","UN":"UNBMO","CITY":"Aracoiaba","UTRNAME":"RAP-03 (eeat-03)","COMM_TYPE":"Link Getic","PROT_TYPE":"OPC UA"},"geometry":{"type":"Point","coordinates":[-38.810689,-4.369892]}},{"type":"Feature","properties":{"UTR":206,"COMM_STS":0,"COMM_TS":"01/01/2024 00:00","UN":"UNBMO","CITY":"Baturité","UTRNAME":"RAP-04 EEAT-05","COMM_TYPE":"Link Getic","PROT_TYPE":"OPC UA/ MQTT"},"geometry":{"type":"Point","coordinates":[-38.864417,-4.344108]}},{"type":"Feature","properties":{"UTR":207,"COMM_STS":1,"COMM_TS":"01/01/2024 00:00","UN":"UNBML","CITY":"Chorozinho","UTRNAME":"Captação Rio Choró","COMM_TYPE":"Roteador Novus 4G","PROT_TYPE":"MQTT"},"geometry":{"type":"Point","coordinates":[-38.497666,-4.304223]}},{"type":"Feature","properties":{"UTR":208,"COMM_STS":1,"COMM_TS":"01/01/2024 00:00","UN":"UNBMO","CITY":"Baturité","UTRNAME":"ETA Baturité","COMM_TYPE":"Link Getic","PROT_TYPE":"OPC UA"},"geometry":{"type":"Point","coordinates":[-38.886111,-4.324444]}},{"type":"Feature","properties":{"UTR":209,"COMM_STS":0,"COMM_TS":"01/01/2024 00:00","UN":"UNBMO","CITY":"Baturité","UTRNAME":"RAP-04 Baturité","COMM_TYPE":"EPZ_048279","PROT_TYPE":"MQTT"},"geometry":{"type":"Point","coordinates":[-38.864417,-4.344108]}},{"type":"Feature","properties":{"UTR":210,"COMM_STS":0,"COMM_TS":"01/01/2024 00:00","UN":"UNBMO","CITY":"Itapebussu","UTRNAME":"ETA Itapebussu","COMM_TYPE":"Roteador Novus 4G + Elsys","PROT_TYPE":"MQTT"},"geometry":{"type":"Point","coordinates":[-38.906278,-4.061167]}},{"type":"Feature","properties":{"UTR":211,"COMM_STS":1,"COMM_TS":"01/01/2024 00:00","UN":"UNBMO","CITY":"Itapebussu","UTRNAME":"Estação Elevatória - Itapebussu","COMM_TYPE":"Link Getic","PROT_TYPE":"OPC UA"},"geometry":{"type":"Point","coordinates":[-38.926196,-4.031376]}},{"type":"Feature","properties":{"UTR":212,"COMM_STS":0,"COMM_TS":"01/01/2024 00:00","UN":"UNBMO","CITY":"Itapebussu","UTRNAME":"REL-01 Itapebussu","COMM_TYPE":"EPZ_048363","PROT_TYPE":"MQTT"},"geometry":{"type":"Point","coordinates":[-38.971672,-4.026833]}},{"type":"Feature","properties":{"UTR":213,"COMM_STS":0,"COMM_TS":"01/01/2024 00:00","UN":"UNBMO","CITY":"Itapebussu","UTRNAME":"RAP-03 Itapebussu","COMM_TYPE":"Roteador Novus 4G","PROT_TYPE":"MQTT"},"geometry":{"type":"Point","coordinates":[-38.926948,-4.033165]}},{"type":"Feature","properties":{"UTR":215,"COMM_STS":0,"COMM_TS":"01/01/2024 00:00","UN":"UNMTN","CITY":"Sitios Novos","UTRNAME":"ETA Sitios Novos","COMM_TYPE":"Roteador Novus 4G","PROT_TYPE":"OPC UA"},"geometry":{"type":"Point","coordinates":[-38.950694,-3.748417]}},{"type":"Feature","properties":{"UTR":216,"COMM_STS":0,"COMM_TS":"01/01/2024 00:00","UN":"UNMTN","CITY":"Sitios Novos","UTRNAME":"REL-01 Sitios Novos","COMM_TYPE":"EPZ_048330","PROT_TYPE":"MQTT"},"geometry":{"type":"Point","coordinates":[-38.949184,-3.748298]}},{"type":"Feature","properties":{"UTR":217,"COMM_STS":1,"COMM_TS":"01/01/2024 00:00","UN":"UNMTN","CITY":"Capuan","UTRNAME":"EEAT-01 Captação Lago do Parnamirim","COMM_TYPE":"","PROT_TYPE":""},"geometry":{"type":"Point","coordinates":[-38.714551,-3.645451]}},{"type":"Feature","properties":{"UTR":218,"COMM_STS":0,"COMM_TS":"01/01/2024 00:00","UN":"UNMTN","CITY":"Capuan","UTRNAME":"REL-03","COMM_TYPE":"EPZ_049328","PROT_TYPE":""},"geometry":{"type":"Point","coordinates":[-38.712221,-3.668893]}},{"type":"Feature","properties":{"UTR":219,"COMM_STS":0,"COMM_TS":"01/01/2024 00:00","UN":"UNMTN","CITY":"Capuan","UTRNAME":"REL-02","COMM_TYPE":"EPZ_049288","PROT_TYPE":""},"geometry":{"type":"Point","coordinates":[-38.7075,-3.692778]}},{"type":"Feature","properties":{"UTR":220,"COMM_STS":0,"COMM_TS":"01/01/2024 00:00","UN":"UNMTN","CITY":"Capuan","UTRNAME":"Nucleo Capuan","COMM_TYPE":"iot2050","PROT_TYPE":""},"geometry":{"type":"Point","coordinates":[-38.691239,-3.729389]}},{"type":"Feature","properties":{"UTR":221,"COMM_STS":0,"COMM_TS":"01/01/2024 00:00","UN":"UNMTN","CITY":"Capuan","UTRNAME":"REL-04 Genipabú","COMM_TYPE":"EPZ_049365","PROT_TYPE":""},"geometry":{"type":"Point","coordinates":[-38.74395,-3.735625]}},{"type":"Feature","properties":{"UTR":222,"COMM_STS":0,"COMM_TS":"01/01/2024 00:00","UN":"UNMTN","CITY":"Capuan","UTRNAME":"EPZ Reforço Capuan 2","COMM_TYPE":"EPZ_048308","PROT_TYPE":""},"geometry":{"type":"Point","coordinates":[-38.664875,-3.731487]}},{"type":"Feature","properties":{"UTR":223,"COMM_STS":0,"COMM_TS":"01/01/2024 00:00","UN":"UNBML","CITY":"Horizonte","UTRNAME":"EEAB-02","COMM_TYPE":"iot 2050","PROT_TYPE":"OPC UA"},"geometry":{"type":"Point","coordinates":[-38.520883,-4.073511]}},{"type":"Feature","properties":{"UTR":224,"COMM_STS":0,"COMM_TS":"01/01/2024 00:00","UN":"UNBML","CITY":"Horizonte","UTRNAME":"FIT ETA Horizonte","COMM_TYPE":"iot 2050","PROT_TYPE":"MQTT"},"geometry":{"type":"Point","coordinates":[-38.517817,-4.076208]}},{"type":"Feature","properties":{"UTR":225,"COMM_STS":1,"COMM_TS":"01/01/2024 00:00","UN":"UNBML","CITY":"Horizonte","UTRNAME":"ETA Horizonte","COMM_TYPE":"","PROT_TYPE":""},"geometry":{"type":"Point","coordinates":[-38.517817,-4.076208]}},{"type":"Feature","properties":{"UTR":226,"COMM_STS":0,"COMM_TS":"01/01/2024 00:00","UN":"UNBML","CITY":"Pacajus","UTRNAME":"Núcleo Pacajus","COMM_TYPE":"","PROT_TYPE":""},"geometry":{"type":"Point","coordinates":[-38.464737,-4.174977]}},{"type":"Feature","properties":{"UTR":227,"COMM_STS":1,"COMM_TS":"01/01/2024 00:00","UN":"UNBML","CITY":"Chorozinho","UTRNAME":"REL Chorozinho","COMM_TYPE":"EPZ_048331","PROT_TYPE":"MQTT"},"geometry":{"type":"Point","coordinates":[-38.499899,-4.299537]}},{"type":"Feature","properties":{"UTR":228,"COMM_STS":0,"COMM_TS":"01/01/2024 00:00","UN":"UNBMO","CITY":"Guaramiranga","UTRNAME":"EEPT-01 Guaramiranga","COMM_TYPE":"Novus 4G","PROT_TYPE":"MQTT"},"geometry":{"type":"Point","coordinates":[-38.93358,-4.260591]}},{"type":"Feature","properties":{"UTR":230,"COMM_STS":0,"COMM_TS":"01/01/2024 00:00","UN":"UNBMO","CITY":"Guaramiranga","UTRNAME":"Escritório Guaramiranga","COMM_TYPE":"iot 2050","PROT_TYPE":"MQTT"},"geometry":{"type":"Point","coordinates":[-38.931889,-4.260583]}},{"type":"Feature","properties":{"UTR":231,"COMM_STS":0,"COMM_TS":"01/01/2024 00:00","UN":"UNBMO","CITY":"Guaramiranga","UTRNAME":"REL-01 Guaramiranga","COMM_TYPE":"EPZ_048323","PROT_TYPE":"MQTT"},"geometry":{"type":"Point","coordinates":[-38.931889,-4.260583]}},{"type":"Feature","properties":{"UTR":232,"COMM_STS":0,"COMM_TS":"01/01/2024 00:00","UN":"UNBMO","CITY":"Guaramiranga","UTRNAME":"EEPA-01 Guaramiranga","COMM_TYPE":"iot 2050","PROT_TYPE":"MQTT"},"geometry":{"type":"Point","coordinates":[-38.93075,-4.262778]}},{"type":"Feature","properties":{"UTR":233,"COMM_STS":0,"COMM_TS":"01/01/2024 00:00","UN":"UNBMO","CITY":"Guaramiranga","UTRNAME":"EEPT-07 Guaramiranga","COMM_TYPE":"iot 2050","PROT_TYPE":"MQTT"},"geometry":{"type":"Point","coordinates":[-38.937778,-4.261944]}},{"type":"Feature","properties":{"UTR":234,"COMM_STS":1,"COMM_TS":"01/01/2024 00:00","UN":"UNBMO","CITY":"Guaramiranga","UTRNAME":"EEPT-06 Guaramiranga","COMM_TYPE":"Novus 4G","PROT_TYPE":"MQTT"},"geometry":{"type":"Point","coordinates":[-38.934713,-4.260802]}},{"type":"Feature","properties":{"UTR":235,"COMM_STS":0,"COMM_TS":"01/01/2024 00:00","UN":"UNBML","CITY":"Aquiraz","UTRNAME":"ETA Aquiraz - EEAT-02","COMM_TYPE":"Link","PROT_TYPE":""},"geometry":{"type":"Point","coordinates":[-38.379498,-3.90945]}},{"type":"Feature","properties":{"UTR":236,"COMM_STS":0,"COMM_TS":"01/01/2024 00:00","UN":"UNBML","CITY":"Aquiraz","UTRNAME":"ETA Aquiraz - EEAT-01","COMM_TYPE":"Link","PROT_TYPE":""},"geometry":{"type":"Point","coordinates":[-38.379825,-3.909356]}},{"type":"Feature","properties":{"UTR":237,"COMM_STS":0,"COMM_TS":"01/01/2024 00:00","UN":"UNBML","CITY":"Aquiraz","UTRNAME":"EECS-02 Captação Lagoa do Catu","COMM_TYPE":"Novus 4G","PROT_TYPE":""},"geometry":{"type":"Point","coordinates":[-38.352853,-3.903628]}},{"type":"Feature","properties":{"UTR":238,"COMM_STS":0,"COMM_TS":"01/01/2024 00:00","UN":"UNBML","CITY":"Aquiraz","UTRNAME":"REL-03 Aquiraz","COMM_TYPE":"EPZ_048276","PROT_TYPE":""},"geometry":{"type":"Point","coordinates":[-38.380061,-3.901731]}},{"type":"Feature","properties":{"UTR":239,"COMM_STS":1,"COMM_TS":"01/01/2024 00:00","UN":"UNBML","CITY":"Aquiraz","UTRNAME":"REL-04 Prainha","COMM_TYPE":"EPZ_048306","PROT_TYPE":""},"geometry":{"type":"Point","coordinates":[-38.352853,-3.903628]}},{"type":"Feature","properties":{"UTR":250,"COMM_STS":1,"COMM_TS":"01/01/2024 00:00","UN":"UNBSI","CITY":"Pires Ferreira","UTRNAME":"ETA Marruás","COMM_TYPE":"CLP + Roteador Microtik ","PROT_TYPE":"MQTT"},"geometry":{"type":"Point","coordinates":[-40.548008,-4.308056]}},{"type":"Feature","properties":{"UTR":251,"COMM_STS":1,"COMM_TS":"01/01/2024 00:00","UN":"UNBSI","CITY":"Pires Ferreira","UTRNAME":"Captação Marruás EEAB-01","COMM_TYPE":"Roteador Novus ","PROT_TYPE":"MQTT"},"geometry":{"type":"Point","coordinates":[-40.476783,-4.275717]}},{"type":"Feature","properties":{"UTR":252,"COMM_STS":0,"COMM_TS":"01/01/2024 00:00","UN":"UNBSI","CITY":"Pires Ferreira","UTRNAME":"REL-03","COMM_TYPE":"CLP + Roteador Novus","PROT_TYPE":"MQTT"},"geometry":{"type":"Point","coordinates":[-40.545267,-4.30335]}},{"type":"Feature","properties":{"UTR":253,"COMM_STS":1,"COMM_TS":"01/01/2024 00:00","UN":"UNBSI","CITY":"Pires Ferreira","UTRNAME":"EEAT-03 Delmiro Golveia","COMM_TYPE":"CLP + Roteador Microtik ","PROT_TYPE":"MQTT"},"geometry":{"type":"Point","coordinates":[-40.55559,-4.273167]}},{"type":"Feature","properties":{"UTR":254,"COMM_STS":0,"COMM_TS":"01/01/2024 00:00","UN":"UNBSI","CITY":"Pires Ferreira","UTRNAME":"RAP-04","COMM_TYPE":"CLP + Roteador Novus ","PROT_TYPE":"MQTT"},"geometry":{"type":"Point","coordinates":[-40.5495,-4.2594]}},{"type":"Feature","properties":{"UTR":255,"COMM_STS":1,"COMM_TS":"01/01/2024 00:00","UN":"UNBSI","CITY":"Pires Ferreira","UTRNAME":"REL-02","COMM_TYPE":"CLP + Roteador Novus ","PROT_TYPE":"MQTT"},"geometry":{"type":"Point","coordinates":[-40.65,-4.248733]}},{"type":"Feature","properties":{"UTR":256,"COMM_STS":1,"COMM_TS":"01/01/2024 00:00","UN":"UNBSI","CITY":"Pires Ferreira","UTRNAME":"Poços","COMM_TYPE":"CLP + Roteador Microtik","PROT_TYPE":"MQTT"},"geometry":{"type":"Point","coordinates":[-40.643617,-4.246333]}},{"type":"Feature","properties":{"UTR":260,"COMM_STS":1,"COMM_TS":"01/01/2024 00:00","UN":"UNBSI","CITY":"Varjota","UTRNAME":"Captação/ETA Varjota","COMM_TYPE":"CLP + Novus","PROT_TYPE":"MQTT"},"geometry":{"type":"Point","coordinates":[-40.462147,-4.210106]}},{"type":"Feature","properties":{"UTR":261,"COMM_STS":0,"COMM_TS":"01/01/2024 00:00","UN":"UNBSI","CITY":"Varjota","UTRNAME":"REL-01 Varjota","COMM_TYPE":"CLP + Novus","PROT_TYPE":"MQTT"},"geometry":{"type":"Point","coordinates":[-40.472275,-4.195306]}},{"type":"Feature","properties":{"UTR":262,"COMM_STS":0,"COMM_TS":"01/01/2024 00:00","UN":"UNBSI","CITY":"Varjota","UTRNAME":"RAP-03 Reriutaba","COMM_TYPE":"CLP + Novus","PROT_TYPE":"MQTT"},"geometry":{"type":"Point","coordinates":[-40.53782,-4.169239]}},{"type":"Feature","properties":{"UTR":263,"COMM_STS":1,"COMM_TS":"01/01/2024 00:00","UN":"UNBSI","CITY":"Varjota","UTRNAME":"REL-03 Reriutaba","COMM_TYPE":"CLP + Novus","PROT_TYPE":"MQTT"},"geometry":{"type":"Point","coordinates":[-40.583747,-4.143986]}},{"type":"Feature","properties":{"UTR":300,"COMM_STS":0,"COMM_TS":"01/01/2024 00:00","UN":"UNBAC","CITY":"Santa Quitéria","UTRNAME":"ETA Santa Quitéria","COMM_TYPE":"Provedor Externo sem VPN","PROT_TYPE":"MQTT"},"geometry":{"type":"Point","coordinates":[-40.067797,-4.238478]}},{"type":"Feature","properties":{"UTR":301,"COMM_STS":0,"COMM_TS":"01/01/2024 00:00","UN":"UNBAC","CITY":"Santa Quitéria","UTRNAME":"EECS-01 Captação","COMM_TYPE":"Rádio Transnet com UTR300","PROT_TYPE":"Serial + MQTT"},"geometry":{"type":"Point","coordinates":[-40.066125,-4.237289]}},{"type":"Feature","properties":{"UTR":302,"COMM_STS":0,"COMM_TS":"01/01/2024 00:00","UN":"UNBAC","CITY":"Santa Quitéria","UTRNAME":"EEAT-02 ST QUITERIA","COMM_TYPE":"Rádio Orbit com UTR303","PROT_TYPE":"OPC UA"},"geometry":{"type":"Point","coordinates":[-40.151711,-4.321544]}},{"type":"Feature","properties":{"UTR":303,"COMM_STS":0,"COMM_TS":"01/01/2024 00:00","UN":"UNBAC","CITY":"Santa Quitéria","UTRNAME":"EEAT-03 ST QUITERIA","COMM_TYPE":"Link Getic + Orbit. ","PROT_TYPE":"OPC UA"},"geometry":{"type":"Point","coordinates":[-40.154861,-4.332828]}},{"type":"Feature","properties":{"UTR":304,"COMM_STS":0,"COMM_TS":"01/01/2024 00:00","UN":"UNBAC","CITY":"Santa Quitéria","UTRNAME":"REL-03 ST QUITERIA","COMM_TYPE":"Rádio Orbit com UTR303","PROT_TYPE":"OPC UA"},"geometry":{"type":"Point","coordinates":[-40.152364,-4.340033]}},{"type":"Feature","properties":{"UTR":310,"COMM_STS":0,"COMM_TS":"01/01/2024 00:00","UN":"UNBAC","CITY":"Acaraú","UTRNAME":"ETA Acaraú","COMM_TYPE":"Roteador Novus 4G","PROT_TYPE":"MQTT"},"geometry":{"type":"Point","coordinates":[-40.119778,-2.886]}},{"type":"Feature","properties":{"UTR":311,"COMM_STS":0,"COMM_TS":"01/01/2024 00:00","UN":"UNBAC","CITY":"Acaraú","UTRNAME":"EEPT-02 Acaraú","COMM_TYPE":"Roteador Novus 4G","PROT_TYPE":"MQTT"},"geometry":{"type":"Point","coordinates":[-40.119675,-2.894036]}},{"type":"Feature","properties":{"UTR":312,"COMM_STS":0,"COMM_TS":"01/01/2024 00:00","UN":"UNBAC","CITY":"Acaraú","UTRNAME":"EEPT-03 Acaraú","COMM_TYPE":"Roteador Novus 4G","PROT_TYPE":"MQTT"},"geometry":{"type":"Point","coordinates":[-40.113594,-2.893064]}},{"type":"Feature","properties":{"UTR":313,"COMM_STS":0,"COMM_TS":"01/01/2024 00:00","UN":"UNBAC","CITY":"Acaraú","UTRNAME":"EEPT-04 Acaraú","COMM_TYPE":"Roteador Novus 4G","PROT_TYPE":"MQTT"},"geometry":{"type":"Point","coordinates":[-40.113856,-2.893256]}},{"type":"Feature","properties":{"UTR":314,"COMM_STS":0,"COMM_TS":"01/01/2024 00:00","UN":"UNBAC","CITY":"Acaraú","UTRNAME":"REL-01 Acaraú","COMM_TYPE":"Roteador Novus 4G","PROT_TYPE":"MQTT"},"geometry":{"type":"Point","coordinates":[-40.119778,-2.886]}},{"type":"Feature","properties":{"UTR":315,"COMM_STS":0,"COMM_TS":"01/01/2024 00:00","UN":"UNBAC","CITY":"Acaraú","UTRNAME":"REL-02 Acaraú","COMM_TYPE":"EPZ_048339","PROT_TYPE":"MQTT"},"geometry":{"type":"Point","coordinates":[-40.107306,-2.896194]}},{"type":"Feature","properties":{"UTR":316,"COMM_STS":1,"COMM_TS":"01/01/2024 00:00","UN":"UNBAC","CITY":"Acaraú","UTRNAME":"EEAT-03 Rio das Garças","COMM_TYPE":"","PROT_TYPE":""},"geometry":{"type":"Point","coordinates":[-40.111081,-2.890003]}},{"type":"Feature","properties":{"UTR":317,"COMM_STS":0,"COMM_TS":"01/01/2024 00:00","UN":"UNBAC","CITY":"Acaraú","UTRNAME":"EERD-01 Acaraú","COMM_TYPE":"","PROT_TYPE":""},"geometry":{"type":"Point","coordinates":[-40.113253,-2.886083]}},{"type":"Feature","properties":{"UTR":320,"COMM_STS":0,"COMM_TS":"01/01/2024 00:00","UN":"UNBAC","CITY":"Jeri","UTRNAME":"EEAT-01 Jeri (RAP + 6xPT) ","COMM_TYPE":"","PROT_TYPE":""},"geometry":{"type":"Point","coordinates":[-40.517383,-2.793578]}},{"type":"Feature","properties":{"UTR":321,"COMM_STS":0,"COMM_TS":"01/01/2024 00:00","UN":"UNBAC","CITY":"Jeri","UTRNAME":"EEE1 Jeri","COMM_TYPE":"","PROT_TYPE":""},"geometry":{"type":"Point","coordinates":[-40.504322,-2.799813]}},{"type":"Feature","properties":{"UTR":322,"COMM_STS":0,"COMM_TS":"01/01/2024 00:00","UN":"UNBAC","CITY":"Jeri","UTRNAME":"ETE Jeri","COMM_TYPE":"","PROT_TYPE":""},"geometry":{"type":"Point","coordinates":[-40.517383,-2.793578]}},{"type":"Feature","properties":{"UTR":350,"COMM_STS":0,"COMM_TS":"01/01/2024 00:00","UN":"UNBCL","CITY":"Pentecoste","UTRNAME":"Sede Pentecoste","COMM_TYPE":"Link Getic + Transnet","PROT_TYPE":"OPC UA"},"geometry":{"type":"Point","coordinates":[-39.267236,-3.797288]}},{"type":"Feature","properties":{"UTR":351,"COMM_STS":0,"COMM_TS":"01/01/2024 00:00","UN":"UNBCL","CITY":"Pentecoste","UTRNAME":"ETA Pentecoste (UTR 2)","COMM_TYPE":"Radio Transnet900 com UTR 350","PROT_TYPE":"OPC UA"},"geometry":{"type":"Point","coordinates":[-39.267038,-3.798857]}},{"type":"Feature","properties":{"UTR":352,"COMM_STS":0,"COMM_TS":"01/01/2024 00:00","UN":"UNBCL","CITY":"Pentecoste","UTRNAME":"REL-03 São Pedro (UTR 3)","COMM_TYPE":"Radio Transnet900 com UTR 350","PROT_TYPE":"OPC UA"},"geometry":{"type":"Point","coordinates":[-39.261324,-3.813645]}},{"type":"Feature","properties":{"UTR":353,"COMM_STS":0,"COMM_TS":"01/01/2024 00:00","UN":"UNBCL","CITY":"Pentecoste","UTRNAME":"REL-02 Gomes da Silva (UTR 4)","COMM_TYPE":"Radio Transnet900 com UTR 350","PROT_TYPE":"OPC UA"},"geometry":{"type":"Point","coordinates":[-39.265366,-3.792659]}},{"type":"Feature","properties":{"UTR":354,"COMM_STS":0,"COMM_TS":"01/01/2024 00:00","UN":"UNBCL","CITY":"Pentecoste","UTRNAME":"REL-04 Santa Inês (UTR 5)","COMM_TYPE":"Radio Transnet900 com UTR 350","PROT_TYPE":"OPC UA"},"geometry":{"type":"Point","coordinates":[-39.265228,-3.788212]}},{"type":"Feature","properties":{"UTR":355,"COMM_STS":1,"COMM_TS":"01/01/2024 00:00","UN":"UNBCL","CITY":"Lagoinha","UTRNAME":"SSD Lagoinha","COMM_TYPE":"IOT2050","PROT_TYPE":"MQTT"},"geometry":{"type":"Point","coordinates":[-39.135278,-3.350278]}},{"type":"Feature","properties":{"UTR":356,"COMM_STS":0,"COMM_TS":"01/01/2024 00:00","UN":"UNBCL","CITY":"Lagoinha","UTRNAME":"PT1","COMM_TYPE":"IOT2050","PROT_TYPE":"MQTT"},"geometry":{"type":"Point","coordinates":[-39.135667,-3.3488]}},{"type":"Feature","properties":{"UTR":357,"COMM_STS":0,"COMM_TS":"01/01/2024 00:00","UN":"UNBCL","CITY":"Lagoinha","UTRNAME":"PT2","COMM_TYPE":"IOT2050","PROT_TYPE":"MQTT"},"geometry":{"type":"Point","coordinates":[-39.137961,-3.349328]}},{"type":"Feature","properties":{"UTR":400,"COMM_STS":0,"COMM_TS":"01/01/2024 00:00","UN":"UNBSC","CITY":"Crateús","UTRNAME":"ETA Poty","COMM_TYPE":"CLP + Fibra","PROT_TYPE":"OPC UA"},"geometry":{"type":"Point","coordinates":[-40.675942,-5.185508]}},{"type":"Feature","properties":{"UTR":401,"COMM_STS":0,"COMM_TS":"01/01/2024 00:00","UN":"UNBSC","CITY":"Crateús","UTRNAME":"Captação Carnaubal","COMM_TYPE":"Roteador Novus ","PROT_TYPE":"MQTT"},"geometry":{"type":"Point","coordinates":[-40.669814,-5.281144]}},{"type":"Feature","properties":{"UTR":402,"COMM_STS":0,"COMM_TS":"01/01/2024 00:00","UN":"UNBSC","CITY":"Crateús","UTRNAME":"Captação Batalhão","COMM_TYPE":"Roteador Novus","PROT_TYPE":"MQTT"},"geometry":{"type":"Point","coordinates":[-40.658407,-5.194855]}},{"type":"Feature","properties":{"UTR":403,"COMM_STS":0,"COMM_TS":"01/01/2024 00:00","UN":"UNBSC","CITY":"Crateús","UTRNAME":"EEAT-02 UFC","COMM_TYPE":"CLP + Roteador Novus","PROT_TYPE":"OPC UA"},"geometry":{"type":"Point","coordinates":[-40.639305,-5.186116]}},{"type":"Feature","properties":{"UTR":404,"COMM_STS":0,"COMM_TS":"01/01/2024 00:00","UN":"UNBSC","CITY":"Crateús","UTRNAME":"EEAT-03 Dom Fragoso","COMM_TYPE":"CLP + Roteador Novus","PROT_TYPE":"OPC UA"},"geometry":{"type":"Point","coordinates":[-40.662961,-5.161092]}},{"type":"Feature","properties":{"UTR":405,"COMM_STS":0,"COMM_TS":"01/01/2024 00:00","UN":"UNBSC","CITY":"Crateús","UTRNAME":"REL-04 Dom Fragoso","COMM_TYPE":"CLP + Roteador Novus","PROT_TYPE":"OPC UA"},"geometry":{"type":"Point","coordinates":[-40.662032,-5.156065]}},{"type":"Feature","properties":{"UTR":406,"COMM_STS":0,"COMM_TS":"01/01/2024 00:00","UN":"UNBSC","CITY":"Crateús","UTRNAME":"EPZ Sto. Herminio","COMM_TYPE":"CLP + Roteador Novus","PROT_TYPE":"OPC UA"},"geometry":{"type":"Point","coordinates":[-40.656696,-5.184015]}},{"type":"Feature","properties":{"UTR":410,"COMM_STS":0,"COMM_TS":"01/01/2024 00:00","UN":"UNBSC","CITY":"Novo Oriente","UTRNAME":"ETA Novo Oriente ","COMM_TYPE":"","PROT_TYPE":""},"geometry":{"type":"Point","coordinates":[-40.7735,-5.546528]}},{"type":"Feature","properties":{"UTR":411,"COMM_STS":0,"COMM_TS":"01/01/2024 00:00","UN":"UNBSC","CITY":"Novo Oriente","UTRNAME":"EECS-01 Captação Flor do Campo","COMM_TYPE":"","PROT_TYPE":""},"geometry":{"type":"Point","coordinates":[-40.677222,-5.572778]}},{"type":"Feature","properties":{"UTR":413,"COMM_STS":0,"COMM_TS":"01/01/2024 00:00","UN":"UNBSC","CITY":"Novo Oriente","UTRNAME":"EERD-03 Booster Fechado","COMM_TYPE":"","PROT_TYPE":""},"geometry":{"type":"Point","coordinates":[-40.790833,-5.540278]}},{"type":"Feature","properties":{"UTR":414,"COMM_STS":0,"COMM_TS":"01/01/2024 00:00","UN":"UNBSC","CITY":"Novo Oriente","UTRNAME":"EERD-01 Varzea do Feijão ","COMM_TYPE":"","PROT_TYPE":""},"geometry":{"type":"Point","coordinates":[-40.790833,-5.540278]}},{"type":"Feature","properties":{"UTR":415,"COMM_STS":0,"COMM_TS":"01/01/2024 00:00","UN":"UNBSC","CITY":"Novo Oriente","UTRNAME":"REL-02","COMM_TYPE":"","PROT_TYPE":""},"geometry":{"type":"Point","coordinates":[-40.795278,-5.545278]}},{"type":"Feature","properties":{"UTR":417,"COMM_STS":0,"COMM_TS":"01/01/2024 00:00","UN":"UNBSC","CITY":"Novo Oriente","UTRNAME":"REL-03","COMM_TYPE":"","PROT_TYPE":""},"geometry":{"type":"Point","coordinates":[-40.686944,-5.6]}},{"type":"Feature","properties":{"UTR":450,"COMM_STS":0,"COMM_TS":"01/01/2024 00:00","UN":"UNBSA","CITY":"Cedro","UTRNAME":"ETA Cedro","COMM_TYPE":"Link Getic","PROT_TYPE":"OPC UA"},"geometry":{"type":"Point","coordinates":[-39.0564726,-6.5997508]}},{"type":"Feature","properties":{"UTR":451,"COMM_STS":0,"COMM_TS":"01/01/2024 00:00","UN":"UNBSA","CITY":"Cedro","UTRNAME":"EECS-02 Captação","COMM_TYPE":"Roteador Novus 4G","PROT_TYPE":"MQTT"},"geometry":{"type":"Point","coordinates":[-39.0564726,-6.5997508]}},{"type":"Feature","properties":{"UTR":452,"COMM_STS":0,"COMM_TS":"01/01/2024 00:00","UN":"UNBSA","CITY":"Cedro","UTRNAME":"EERD-01 Booster Candeias","COMM_TYPE":"Roteador Novus 4G","PROT_TYPE":"MQTT"},"geometry":{"type":"Point","coordinates":[-39.068712,-6.598252]}},{"type":"Feature","properties":{"UTR":453,"COMM_STS":0,"COMM_TS":"01/01/2024 00:00","UN":"UNBSA","CITY":"Cedro","UTRNAME":"REL-02 Candeias","COMM_TYPE":"Roteador Novus 4G","PROT_TYPE":"MQTT"},"geometry":{"type":"Point","coordinates":[-39.0974906,-6.6022314]}},{"type":"Feature","properties":{"UTR":454,"COMM_STS":0,"COMM_TS":"01/01/2024 00:00","UN":"UNBSA","CITY":"Cedro","UTRNAME":"EEAT-04 Angicos","COMM_TYPE":"Roteador Novus 4G","PROT_TYPE":"MQTT"},"geometry":{"type":"Point","coordinates":[-39.046272,-6.548381]}},{"type":"Feature","properties":{"UTR":455,"COMM_STS":0,"COMM_TS":"01/01/2024 00:00","UN":"UNBSA","CITY":"Cedro","UTRNAME":"REL-05 Angicos","COMM_TYPE":"Roteador Novus 4G","PROT_TYPE":"MQTT"},"geometry":{"type":"Point","coordinates":[-39.054813,-6.47962]}},{"type":"Feature","properties":{"UTR":500,"COMM_STS":0,"COMM_TS":"01/01/2024 00:00","UN":"UNBBJ","CITY":"Quixeré","UTRNAME":"ETA Quixeré","COMM_TYPE":"Link da Getic","PROT_TYPE":"OPC UA"},"geometry":{"type":"Point","coordinates":[-38.006786,-5.074222]}},{"type":"Feature","properties":{"UTR":501,"COMM_STS":0,"COMM_TS":"01/01/2024 00:00","UN":"UNBBJ","CITY":"Quixeré","UTRNAME":"REL-01 Quixeré","COMM_TYPE":"Link da Getic","PROT_TYPE":"OPC UA"},"geometry":{"type":"Point","coordinates":[-37.990528,-5.073306]}},{"type":"Feature","properties":{"UTR":510,"COMM_STS":1,"COMM_TS":"01/01/2024 00:00","UN":"UNBBJ","CITY":"Pereiro","UTRNAME":"EEAB-03 Captação Rio Jaguaribe","COMM_TYPE":"Roteador Novus 4G","PROT_TYPE":"MQTT"},"geometry":{"type":"Point","coordinates":[-38.67747,-6.016548]}},{"type":"Feature","properties":{"UTR":511,"COMM_STS":1,"COMM_TS":"01/01/2024 00:00","UN":"UNBBJ","CITY":"Pereiro","UTRNAME":"EEAB-04","COMM_TYPE":"Roteador Novus 4G","PROT_TYPE":"MQTT"},"geometry":{"type":"Point","coordinates":[-38.649768,-6.020318]}},{"type":"Feature","properties":{"UTR":512,"COMM_STS":1,"COMM_TS":"01/01/2024 00:00","UN":"UNBBJ","CITY":"Pereiro","UTRNAME":"EEAB-05","COMM_TYPE":"Radio Orbit com UTR 516","PROT_TYPE":"OPC UA"},"geometry":{"type":"Point","coordinates":[-38.510485,-6.043397]}},{"type":"Feature","properties":{"UTR":513,"COMM_STS":1,"COMM_TS":"01/01/2024 00:00","UN":"UNBBJ","CITY":"Pereiro","UTRNAME":"EEAB-06","COMM_TYPE":"Radio Orbit com UTR 516","PROT_TYPE":"OPC UA"},"geometry":{"type":"Point","coordinates":[-38.521237,-6.045578]}},{"type":"Feature","properties":{"UTR":514,"COMM_STS":1,"COMM_TS":"01/01/2024 00:00","UN":"UNBBJ","CITY":"Pereiro","UTRNAME":"EEAB-07","COMM_TYPE":"Radio Orbit com UTR 516","PROT_TYPE":"OPC UA"},"geometry":{"type":"Point","coordinates":[-38.510509,-6.043389]}},{"type":"Feature","properties":{"UTR":515,"COMM_STS":0,"COMM_TS":"01/01/2024 00:00","UN":"UNBBJ","CITY":"Pereiro","UTRNAME":"EECS-01 Captação Açude Adauto Bezerra","COMM_TYPE":"Roteador Novus 4G","PROT_TYPE":"MQTT"},"geometry":{"type":"Point","coordinates":[-38.448306,-6.037642]}},{"type":"Feature","properties":{"UTR":516,"COMM_STS":0,"COMM_TS":"01/01/2024 00:00","UN":"UNBBJ","CITY":"Pereiro","UTRNAME":"ETA Pereiro","COMM_TYPE":"Link Getic + Radio Orbit","PROT_TYPE":"OPC UA"},"geometry":{"type":"Point","coordinates":[-38.460561,-6.04925]}},{"type":"Feature","properties":{"UTR":517,"COMM_STS":1,"COMM_TS":"01/01/2024 00:00","UN":"UNBBJ","CITY":"Pereiro","UTRNAME":"RAP-02","COMM_TYPE":"Roteador Novus 4G","PROT_TYPE":"MQTT"},"geometry":{"type":"Point","coordinates":[-38.455278,-6.054098]}},{"type":"Feature","properties":{"UTR":550,"COMM_STS":0,"COMM_TS":"01/01/2024 00:00","UN":"UNBBA","CITY":"Ibicuitinga","UTRNAME":"ETA Ibicuitinga","COMM_TYPE":"Link da Getic","PROT_TYPE":"OPC UA"},"geometry":{"type":"Point","coordinates":[-38.57235,-5.141531]}},{"type":"Feature","properties":{"UTR":551,"COMM_STS":0,"COMM_TS":"01/01/2024 00:00","UN":"UNBBA","CITY":"Ibicuitinga","UTRNAME":"PR-01","COMM_TYPE":"IOT2050","PROT_TYPE":"OPC UA"},"geometry":{"type":"Point","coordinates":[-38.57235,-5.143112]}},{"type":"Feature","properties":{"UTR":552,"COMM_STS":0,"COMM_TS":"01/01/2024 00:00","UN":"UNBBA","CITY":"Ibicuitinga","UTRNAME":"EEAT-03","COMM_TYPE":"Roteador Novus 4G + Elsys","PROT_TYPE":"MQTT"},"geometry":{"type":"Point","coordinates":[-38.560692,-5.11542]}},{"type":"Feature","properties":{"UTR":553,"COMM_STS":0,"COMM_TS":"01/01/2024 00:00","UN":"UNBBA","CITY":"Ibicuitinga","UTRNAME":"EEAT-04","COMM_TYPE":"Roteador Novus 4G","PROT_TYPE":"MQTT"},"geometry":{"type":"Point","coordinates":[-38.561691,-5.004044]}},{"type":"Feature","properties":{"UTR":554,"COMM_STS":1,"COMM_TS":"01/01/2024 00:00","UN":"UNBBA","CITY":"Ibicuitinga","UTRNAME":"REL-03","COMM_TYPE":"EPZ_048353","PROT_TYPE":"MQTT"},"geometry":{"type":"Point","coordinates":[-38.5114,-5.009942]}},{"type":"Feature","properties":{"UTR":555,"COMM_STS":0,"COMM_TS":"01/01/2024 00:00","UN":"UNBBA","CITY":"Ibicuitinga","UTRNAME":"Sede Ibicuitinga ","COMM_TYPE":"Roteador Novus 4G","PROT_TYPE":"MQTT"},"geometry":{"type":"Point","coordinates":[-38.628971,-4.978988]}},{"type":"Feature","properties":{"UTR":556,"COMM_STS":0,"COMM_TS":"01/01/2024 00:00","UN":"UNBBA","CITY":"Ibicuitinga","UTRNAME":"EEAT-05","COMM_TYPE":"Roteador Novus 4G","PROT_TYPE":"MQTT"},"geometry":{"type":"Point","coordinates":[-38.637684,-4.971509]}},{"type":"Feature","properties":{"UTR":557,"COMM_STS":0,"COMM_TS":"01/01/2024 00:00","UN":"UNBBA","CITY":"Ibicuitinga","UTRNAME":"EEAT-06","COMM_TYPE":"Roteador Novus 4G","PROT_TYPE":"MQTT"},"geometry":{"type":"Point","coordinates":[-38.635971,-4.963902]}},{"type":"Feature","properties":{"UTR":558,"COMM_STS":0,"COMM_TS":"01/01/2024 00:00","UN":"UNBBA","CITY":"Ibicuitinga","UTRNAME":"EEAT-07","COMM_TYPE":"Roteador Novus 4G","PROT_TYPE":"OPC UA"},"geometry":{"type":"Point","coordinates":[-38.640987,-4.976659]}},{"type":"Feature","properties":{"UTR":559,"COMM_STS":0,"COMM_TS":"01/01/2024 00:00","UN":"UNBBA","CITY":"Ibicuitinga","UTRNAME":"REL-08","COMM_TYPE":"EPZ_048294","PROT_TYPE":"MQTT"},"geometry":{"type":"Point","coordinates":[-38.647717,-4.978051]}},{"type":"Feature","properties":{"UTR":560,"COMM_STS":0,"COMM_TS":"01/01/2024 00:00","UN":"UNBBA","CITY":"Quixadá","UTRNAME":"EECS-01 Açude Pedas Brancas","COMM_TYPE":"","PROT_TYPE":"OPCUA "},"geometry":{"type":"Point","coordinates":[-38.906745,-5.106913]}},{"type":"Feature","properties":{"UTR":561,"COMM_STS":0,"COMM_TS":"01/01/2024 00:00","UN":"UNBBA","CITY":"Quixadá","UTRNAME":"EEAB-01","COMM_TYPE":"IOT2050","PROT_TYPE":"OPCUA "},"geometry":{"type":"Point","coordinates":[-38.907222,-5.101667]}},{"type":"Feature","properties":{"UTR":562,"COMM_STS":0,"COMM_TS":"01/01/2024 00:00","UN":"UNBBA","CITY":"Quixadá","UTRNAME":"ETA Quixadá","COMM_TYPE":"IOT2050","PROT_TYPE":"OPCUA "},"geometry":{"type":"Point","coordinates":[-39.025944,-4.96125]}},{"type":"Feature","properties":{"UTR":563,"COMM_STS":0,"COMM_TS":"01/01/2024 00:00","UN":"UNBBA","CITY":"Quixadá","UTRNAME":"EEAT-03 RAP-04","COMM_TYPE":"IOT2050","PROT_TYPE":"MQTT"},"geometry":{"type":"Point","coordinates":[-39.016471,-4.977169]}},{"type":"Feature","properties":{"UTR":564,"COMM_STS":0,"COMM_TS":"01/01/2024 00:00","UN":"UNBBA","CITY":"Quixadá","UTRNAME":"EEAT-04 REN-01","COMM_TYPE":"IOT2050","PROT_TYPE":"MQTT"},"geometry":{"type":"Point","coordinates":[-39.029879,-4.972553]}},{"type":"Feature","properties":{"UTR":565,"COMM_STS":1,"COMM_TS":"01/01/2024 00:00","UN":"UNBBA","CITY":"Quixadá","UTRNAME":"RAP-05, EEAT-06, EEAT-07, EEAT-08","COMM_TYPE":"IOT2050","PROT_TYPE":"MQTT"},"geometry":{"type":"Point","coordinates":[-39.058943,-4.95754]}},{"type":"Feature","properties":{"UTR":566,"COMM_STS":1,"COMM_TS":"01/01/2024 00:00","UN":"UNBBA","CITY":"Quixadá","UTRNAME":"RAP-02 e RAP-03 Quixadá","COMM_TYPE":"EPZ_048328","PROT_TYPE":"MQTT"},"geometry":{"type":"Point","coordinates":[-39.021969,-4.966519]}},{"type":"Feature","properties":{"UTR":567,"COMM_STS":1,"COMM_TS":"01/01/2024 00:00","UN":"UNBBA","CITY":"Quixadá","UTRNAME":"RAP-01 Fazenda do Japão","COMM_TYPE":"EPZ_048278","PROT_TYPE":"MQTT"},"geometry":{"type":"Point","coordinates":[-38.9732,-5.016305]}},{"type":"Feature","properties":{"UTR":568,"COMM_STS":0,"COMM_TS":"01/01/2024 00:00","UN":"UNBBA","CITY":"Ocara","UTRNAME":"Captação Açude Aracoiaba","COMM_TYPE":"IOT2050","PROT_TYPE":"MQTT"},"geometry":{"type":"Point","coordinates":[-38.696867,-4.405385]}},{"type":"Feature","properties":{"UTR":569,"COMM_STS":0,"COMM_TS":"01/01/2024 00:00","UN":"UNBBA","CITY":"Ocara","UTRNAME":"ETA Ideal","COMM_TYPE":"Roteador Novus 4G","PROT_TYPE":"OPC UA"},"geometry":{"type":"Point","coordinates":[-38.671732,-4.429404]}},{"type":"Feature","properties":{"UTR":570,"COMM_STS":0,"COMM_TS":"01/01/2024 00:00","UN":"UNBBA","CITY":"Ocara","UTRNAME":"EEAT Capivara","COMM_TYPE":"IOT2050","PROT_TYPE":"MQTT"},"geometry":{"type":"Point","coordinates":[-38.6557,-4.451948]}},{"type":"Feature","properties":{"UTR":571,"COMM_STS":0,"COMM_TS":"01/01/2024 00:00","UN":"UNBBA","CITY":"Ocara","UTRNAME":"EEAT Cajarana","COMM_TYPE":"","PROT_TYPE":""},"geometry":{"type":"Point","coordinates":[-38.60434,-4.489352]}},{"type":"Feature","properties":{"UTR":572,"COMM_STS":0,"COMM_TS":"01/01/2024 00:00","UN":"UNBBA","CITY":"Ocara","UTRNAME":"REL-05","COMM_TYPE":"","PROT_TYPE":""},"geometry":{"type":"Point","coordinates":[-38.590928,-4.488442]}},{"type":"Feature","properties":{"UTR":573,"COMM_STS":0,"COMM_TS":"01/01/2024 00:00","UN":"UNBBA","CITY":"Ocara","UTRNAME":"REL-06","COMM_TYPE":"","PROT_TYPE":""},"geometry":{"type":"Point","coordinates":[-38.61152,-4.508122]}},{"type":"Feature","properties":{"UTR":600,"COMM_STS":0,"COMM_TS":"01/01/2024 00:00","UN":"UNBSI","CITY":"Tianguá","UTRNAME":"ETA Jaburu Captação","COMM_TYPE":"PAINEL UTR","PROT_TYPE":"OPCUA "},"geometry":{"type":"Point","coordinates":[-41.095278,-3.837778]}},{"type":"Feature","properties":{"UTR":601,"COMM_STS":1,"COMM_TS":"01/01/2024 00:00","UN":"UNBSI","CITY":"Tianguá","UTRNAME":"ETA Jaburu Elevatórias","COMM_TYPE":"PAINEL UTR","PROT_TYPE":"OPCUA "},"geometry":{"type":"Point","coordinates":[-41.095278,-3.837778]}},{"type":"Feature","properties":{"UTR":602,"COMM_STS":0,"COMM_TS":"01/01/2024 00:00","UN":"UNBSI","CITY":"Caruataí","UTRNAME":"EEAT-03 Caruataí","COMM_TYPE":"PAINEL UTR","PROT_TYPE":"OPCUA "},"geometry":{"type":"Point","coordinates":[-40.975944,-3.837556]}},{"type":"Feature","properties":{"UTR":603,"COMM_STS":0,"COMM_TS":"01/01/2024 00:00","UN":"UNBSI","CITY":"Ubajara","UTRNAME":"EEAT-07 Ubajara","COMM_TYPE":"PAINEL UTR","PROT_TYPE":"OPCUA "},"geometry":{"type":"Point","coordinates":[-40.917056,-3.847389]}},{"type":"Feature","properties":{"UTR":604,"COMM_STS":0,"COMM_TS":"01/01/2024 00:00","UN":"UNBSI","CITY":"Ubajara","UTRNAME":"EEAT-04 Ubajara","COMM_TYPE":"PAINEL UTR","PROT_TYPE":"OPCUA "},"geometry":{"type":"Point","coordinates":[-40.915689,-3.868533]}},{"type":"Feature","properties":{"UTR":605,"COMM_STS":1,"COMM_TS":"01/01/2024 00:00","UN":"UNBSI","CITY":"Ibiapina","UTRNAME":"REL-11 Ibiapina","COMM_TYPE":"EPZ SOLAR + NOVUS + CLP","PROT_TYPE":""},"geometry":{"type":"Point","coordinates":[-40.889931,-3.92125]}},{"type":"Feature","properties":{"UTR":606,"COMM_STS":0,"COMM_TS":"01/01/2024 00:00","UN":"UNBSI","CITY":"Ibiapina","UTRNAME":"EEAT-05 Ibiapina","COMM_TYPE":"PAINEL UTR","PROT_TYPE":"OPCUA "},"geometry":{"type":"Point","coordinates":[-40.891191,-3.934477]}},{"type":"Feature","properties":{"UTR":607,"COMM_STS":0,"COMM_TS":"01/01/2024 00:00","UN":"UNBSI","CITY":"São Benedito","UTRNAME":"RAP-10 S. Benedito","COMM_TYPE":"EPZ SOLAR ATIVA","PROT_TYPE":""},"geometry":{"type":"Point","coordinates":[-40.868056,-4.033889]}},{"type":"Feature","properties":{"UTR":608,"COMM_STS":0,"COMM_TS":"01/01/2024 00:00","UN":"UNBSI","CITY":"São Benedito","UTRNAME":"REL-18 S. Benedito","COMM_TYPE":"EPZ SOLAR ATIVA","PROT_TYPE":""},"geometry":{"type":"Point","coordinates":[-40.865917,-4.042]}},{"type":"Feature","properties":{"UTR":609,"COMM_STS":0,"COMM_TS":"01/01/2024 00:00","UN":"UNBSI","CITY":"Carnaubal","UTRNAME":"RAP-11 Carnaubal","COMM_TYPE":"EPZ SOLAR ATIVA","PROT_TYPE":""},"geometry":{"type":"Point","coordinates":[-40.921833,-4.163583]}},{"type":"Feature","properties":{"UTR":610,"COMM_STS":1,"COMM_TS":"01/01/2024 00:00","UN":"UNBSI","CITY":"Inhuçu","UTRNAME":"EEAT-06 Inhuçú","COMM_TYPE":"PAINEL UTR","PROT_TYPE":"OPCUA "},"geometry":{"type":"Point","coordinates":[-40.851439,-4.121256]}},{"type":"Feature","properties":{"UTR":611,"COMM_STS":0,"COMM_TS":"01/01/2024 00:00","UN":"UNBSI","CITY":"Guaraciaba","UTRNAME":"RAP-13 Guaraciaba","COMM_TYPE":"EPZ SOLAR ATIVA","PROT_TYPE":""},"geometry":{"type":"Point","coordinates":[-40.761758,-4.157542]}},{"type":"Feature","properties":{"UTR":612,"COMM_STS":0,"COMM_TS":"01/01/2024 00:00","UN":"UNBSI","CITY":"Cedro","UTRNAME":"RAP-03 / RAP-19 CEDRO","COMM_TYPE":"PAINEL UTR","PROT_TYPE":""},"geometry":{"type":"Point","coordinates":[-40.980122,-3.802711]}},{"type":"Feature","properties":{"UTR":613,"COMM_STS":0,"COMM_TS":"01/01/2024 00:00","UN":"UNBSI","CITY":"Tianguá","UTRNAME":"ENTRONCAMENTO TIANGUÁ/VIÇOSA (VELHO)","COMM_TYPE":"PAINEL UTR","PROT_TYPE":""},"geometry":{"type":"Point","coordinates":[-40.991591,-3.735238]}},{"type":"Feature","properties":{"UTR":616,"COMM_STS":1,"COMM_TS":"01/01/2024 00:00","UN":"UNBSI","CITY":"Tianguá","UTRNAME":"REL-04 REGIONAL TIANGUÁ","COMM_TYPE":"EPZ SOLAR + NOVUS + CLP","PROT_TYPE":""},"geometry":{"type":"Point","coordinates":[-40.989889,-3.721806]}},{"type":"Feature","properties":{"UTR":617,"COMM_STS":0,"COMM_TS":"01/01/2024 00:00","UN":"UNBSI","CITY":"Tianguá","UTRNAME":"RAP-04 TIANGUÁ","COMM_TYPE":"EPZ SOLAR + NOVUS + CLP","PROT_TYPE":""},"geometry":{"type":"Point","coordinates":[-40.987028,-3.720333]}},{"type":"Feature","properties":{"UTR":618,"COMM_STS":0,"COMM_TS":"01/01/2024 00:00","UN":"UNBSI","CITY":"Viçosa","UTRNAME":"RAP-05 VIÇOSA","COMM_TYPE":"EPZ SOLAR ATIVA","PROT_TYPE":""},"geometry":{"type":"Point","coordinates":[-41.097222,-3.582778]}},{"type":"Feature","properties":{"UTR":619,"COMM_STS":0,"COMM_TS":"01/01/2024 00:00","UN":"UNBSI","CITY":"Viçosa","UTRNAME":"RAP-06 EERD VIÇOSA","COMM_TYPE":"EPZ SOLAR ATIVA","PROT_TYPE":""},"geometry":{"type":"Point","coordinates":[-41.093528,-3.564472]}},{"type":"Feature","properties":{"UTR":620,"COMM_STS":0,"COMM_TS":"01/01/2024 00:00","UN":"UNBSI","CITY":"Viçosa","UTRNAME":"ENTRONCAMENTO TIANGUÁ/VIÇOSA (NOVO) ","COMM_TYPE":"PAINEL UTR","PROT_TYPE":""},"geometry":{"type":"Point","coordinates":[-40.986555,-3.731961]}},{"type":"Feature","properties":{"UTR":621,"COMM_STS":0,"COMM_TS":"01/01/2024 00:00","UN":"UNBSI","CITY":"Tianguá","UTRNAME":"EELF ETA Jaburu","COMM_TYPE":"PAINEL UTR","PROT_TYPE":"OPCUA "},"geometry":{"type":"Point","coordinates":[-41.095278,-3.837778]}},{"type":"Feature","properties":{"UTR":650,"COMM_STS":0,"COMM_TS":"01/01/2024 00:00","UN":"UNBAJ","CITY":"Alagoinha","UTRNAME":"ETA Alagoinha","COMM_TYPE":"","PROT_TYPE":""},"geometry":{"type":"Point","coordinates":[-40.173333,-7.085556]}},{"type":"Feature","properties":{"UTR":651,"COMM_STS":0,"COMM_TS":"01/01/2024 00:00","UN":"UNBAJ","CITY":"Alagoinha","UTRNAME":"EECS-01 Captação João Luis","COMM_TYPE":"","PROT_TYPE":""},"geometry":{"type":"Point","coordinates":[-40.176891,-7.08079]}},{"type":"Feature","properties":{"UTR":652,"COMM_STS":0,"COMM_TS":"01/01/2024 00:00","UN":"UNBAJ","CITY":"Alagoinha","UTRNAME":"PT-05 RSE-04","COMM_TYPE":"UTR","PROT_TYPE":""},"geometry":{"type":"Point","coordinates":[-40.141444,-7.34875]}},{"type":"Feature","properties":{"UTR":653,"COMM_STS":0,"COMM_TS":"01/01/2024 00:00","UN":"UNBAJ","CITY":"Alagoinha","UTRNAME":"REL-03","COMM_TYPE":"UTR","PROT_TYPE":""},"geometry":{"type":"Point","coordinates":[-40.139356,-7.212964]}},{"type":"Feature","properties":{"UTR":654,"COMM_STS":0,"COMM_TS":"01/01/2024 00:00","UN":"UNBAJ","CITY":"Alagoinha","UTRNAME":"EEAT-06","COMM_TYPE":"UTR","PROT_TYPE":""},"geometry":{"type":"Point","coordinates":[-40.143819,-7.214964]}},{"type":"Feature","properties":{"UTR":655,"COMM_STS":0,"COMM_TS":"01/01/2024 00:00","UN":"UNBAJ","CITY":"Alagoinha","UTRNAME":"EEAT-07","COMM_TYPE":"UTR","PROT_TYPE":""},"geometry":{"type":"Point","coordinates":[-40.146061,-7.216917]}},{"type":"Feature","properties":{"UTR":656,"COMM_STS":0,"COMM_TS":"01/01/2024 00:00","UN":"UNBAJ","CITY":"Alagoinha","UTRNAME":"FIT Salitre","COMM_TYPE":"UTR","PROT_TYPE":""},"geometry":{"type":"Point","coordinates":[-40.456589,-7.287625]}},{"type":"Feature","properties":{"UTR":657,"COMM_STS":0,"COMM_TS":"01/01/2024 00:00","UN":"UNBAJ","CITY":"Alagoinha","UTRNAME":"FIT Campos Sales","COMM_TYPE":"UTR","PROT_TYPE":""},"geometry":{"type":"Point","coordinates":[-40.368139,-7.048111]}},{"type":"Feature","properties":{"UTR":658,"COMM_STS":0,"COMM_TS":"01/01/2024 00:00","UN":"UNBAJ","CITY":"Alagoinha","UTRNAME":"FIT 02 Campos Sales","COMM_TYPE":"EPZ SOLAR ATIVA","PROT_TYPE":"MQTT"},"geometry":{"type":"Point","coordinates":[-40.347385,-7.074251]}},{"type":"Feature","properties":{"UTR":662,"COMM_STS":0,"COMM_TS":"01/01/2024 00:00","UN":"UNBAJ","CITY":"Antonina Norte","UTRNAME":"RAP-04","COMM_TYPE":"EPZ SOLAR ATIVA","PROT_TYPE":"MQTT"},"geometry":{"type":"Point","coordinates":[-39.989611,-6.784222]}},{"type":"Feature","properties":{"UTR":701,"COMM_STS":0,"COMM_TS":"01/01/2024 00:00","UN":"UNBSA","CITY":"Juazeiro do Norte","UTRNAME":"Timbauba (PT-01-03-04-05-06-07-08-31)","COMM_TYPE":"Roteador Novus 4G","PROT_TYPE":"OPC UA"},"geometry":{"type":"Point","coordinates":[-39.308009,-7.228]}},{"type":"Feature","properties":{"UTR":702,"COMM_STS":0,"COMM_TS":"01/01/2024 00:00","UN":"UNBSA","CITY":"Juazeiro do Norte","UTRNAME":"Regional (PT-29-30)","COMM_TYPE":"Link Getic","PROT_TYPE":"OPC UA"},"geometry":{"type":"Point","coordinates":[-39.320914,-7.228459]}},{"type":"Feature","properties":{"UTR":703,"COMM_STS":0,"COMM_TS":"01/01/2024 00:00","UN":"UNBSA","CITY":"Juazeiro do Norte","UTRNAME":"Comercial","COMM_TYPE":"IOT2050","PROT_TYPE":"OPC UA"},"geometry":{"type":"Point","coordinates":[-39.316045,-7.207493]}},{"type":"Feature","properties":{"UTR":704,"COMM_STS":0,"COMM_TS":"01/01/2024 00:00","UN":"UNBSA","CITY":"Juazeiro do Norte","UTRNAME":"Lagoa Seca","COMM_TYPE":"Link Getic","PROT_TYPE":"OPC UA"},"geometry":{"type":"Point","coordinates":[-39.323286,-7.240881]}},{"type":"Feature","properties":{"UTR":705,"COMM_STS":0,"COMM_TS":"01/01/2024 00:00","UN":"UNBSA","CITY":"Juazeiro do Norte","UTRNAME":"Horto 1 (PT-20)","COMM_TYPE":"IOT2050","PROT_TYPE":"OPC UA"},"geometry":{"type":"Point","coordinates":[-39.324643,-7.199816]}},{"type":"Feature","properties":{"UTR":706,"COMM_STS":0,"COMM_TS":"01/01/2024 00:00","UN":"UNBSA","CITY":"Juazeiro do Norte","UTRNAME":"Horto 2","COMM_TYPE":"Roteador Novus 4G","PROT_TYPE":"MQTT"},"geometry":{"type":"Point","coordinates":[-39.332951,-7.186111]}},{"type":"Feature","properties":{"UTR":707,"COMM_STS":0,"COMM_TS":"01/01/2024 00:00","UN":"UNBSA","CITY":"Juazeiro do Norte","UTRNAME":"Horto 3","COMM_TYPE":"IOT2050","PROT_TYPE":"OPC UA"},"geometry":{"type":"Point","coordinates":[-39.330653,-7.179194]}},{"type":"Feature","properties":{"UTR":708,"COMM_STS":0,"COMM_TS":"01/01/2024 00:00","UN":"UNBSA","CITY":"Juazeiro do Norte","UTRNAME":"APUC (PT-14-37-44)","COMM_TYPE":"Link Getic","PROT_TYPE":"OPC UA"},"geometry":{"type":"Point","coordinates":[-39.317629,-7.243842]}},{"type":"Feature","properties":{"UTR":710,"COMM_STS":0,"COMM_TS":"01/01/2024 00:00","UN":"UNBSA","CITY":"Juazeiro do Norte","UTRNAME":"Vaquejada 2 (PT-27-34-38-39-41-60)","COMM_TYPE":"Link Getic","PROT_TYPE":"OPC UA"},"geometry":{"type":"Point","coordinates":[-39.298911,-7.248921]}},{"type":"Feature","properties":{"UTR":711,"COMM_STS":0,"COMM_TS":"01/01/2024 00:00","UN":"UNBSA","CITY":"Juazeiro do Norte","UTRNAME":"Aeroporto (PT-18-23)","COMM_TYPE":"Rádio Transnet900 com UTR 22","PROT_TYPE":"OPC UA"},"geometry":{"type":"Point","coordinates":[-39.275656,-7.214203]}},{"type":"Feature","properties":{"UTR":712,"COMM_STS":0,"COMM_TS":"01/01/2024 00:00","UN":"UNBSA","CITY":"Juazeiro do Norte","UTRNAME":"Mutirão (PT-29-21-22-36-45-47-51)","COMM_TYPE":"Link Getic","PROT_TYPE":"OPC UA"},"geometry":{"type":"Point","coordinates":[-39.33607,-7.253108]}},{"type":"Feature","properties":{"UTR":713,"COMM_STS":0,"COMM_TS":"01/01/2024 00:00","UN":"UNBSA","CITY":"Juazeiro do Norte","UTRNAME":"Novo Juazeiro","COMM_TYPE":"IOT2050","PROT_TYPE":"OPC UA"},"geometry":{"type":"Point","coordinates":[-39.294936,-7.223409]}},{"type":"Feature","properties":{"UTR":715,"COMM_STS":0,"COMM_TS":"01/01/2024 00:00","UN":"UNBSA","CITY":"Juazeiro do Norte","UTRNAME":"Palmeirinha - RAP18 (PT-42-50)","COMM_TYPE":"Roteador Novus 4G","PROT_TYPE":"MQTT"},"geometry":{"type":"Point","coordinates":[-39.306895,-7.161375]}},{"type":"Feature","properties":{"UTR":716,"COMM_STS":0,"COMM_TS":"01/01/2024 00:00","UN":"UNBSA","CITY":"Juazeiro do Norte","UTRNAME":"Leandro Bezerra (PT-65)","COMM_TYPE":"Link Getic","PROT_TYPE":"OPC UA"},"geometry":{"type":"Point","coordinates":[-39.299805,-7.175303]}},{"type":"Feature","properties":{"UTR":723,"COMM_STS":0,"COMM_TS":"01/01/2024 00:00","UN":"UNBSA","CITY":"Juazeiro do Norte","UTRNAME":"Terrara (PT-73)","COMM_TYPE":"Roteador Novus 4G","PROT_TYPE":"OPC UA"},"geometry":{"type":"Point","coordinates":[-39.30551,-7.258684]}},{"type":"Feature","properties":{"UTR":724,"COMM_STS":0,"COMM_TS":"01/01/2024 00:00","UN":"UNBSA","CITY":"Juazeiro do Norte","UTRNAME":"Lagoa Seca 2 (PT-09)","COMM_TYPE":"Link Getic","PROT_TYPE":"OPC UA"},"geometry":{"type":"Point","coordinates":[-39.323286,-7.240881]}},{"type":"Feature","properties":{"UTR":725,"COMM_STS":0,"COMM_TS":"01/01/2024 00:00","UN":"UNBSA","CITY":"Juazeiro do Norte","UTRNAME":"Triângulo","COMM_TYPE":"Roteador Novus 4G","PROT_TYPE":"OPC UA"},"geometry":{"type":"Point","coordinates":[-39.328402,-7.235575]}},{"type":"Feature","properties":{"UTR":800,"COMM_STS":0,"COMM_TS":"01/01/2024 00:00","UN":"UNBMO","CITY":"Redenção","UTRNAME":"ETA REDENÇÃO","COMM_TYPE":"Roteador Novus 4G","PROT_TYPE":"MQTT"},"geometry":{"type":"Point","coordinates":[-38.794467,-4.191653]}},{"type":"Feature","properties":{"UTR":801,"COMM_STS":1,"COMM_TS":"01/01/2024 00:00","UN":"UNBMO","CITY":"Redenção","UTRNAME":"BOOSTER BARRA NOVA","COMM_TYPE":"Roteador Novus 4G","PROT_TYPE":"MQTT"},"geometry":{"type":"Point","coordinates":[-38.784459,-4.19328]}},{"type":"Feature","properties":{"UTR":802,"COMM_STS":0,"COMM_TS":"01/01/2024 00:00","UN":"UNBMO","CITY":"Redenção","UTRNAME":"RAP 02","COMM_TYPE":"Roteador Novus 4G","PROT_TYPE":""},"geometry":{"type":"Point","coordinates":[-38.734167,-4.221111]}},{"type":"Feature","properties":{"UTR":803,"COMM_STS":0,"COMM_TS":"01/01/2024 00:00","UN":"UNBMO","CITY":"Redenção","UTRNAME":"BOOSTER ANTONIO DIOGO","COMM_TYPE":"Roteador Novus 4G","PROT_TYPE":"MQTT"},"geometry":{"type":"Point","coordinates":[-38.72791,-4.226234]}},{"type":"Feature","properties":{"UTR":804,"COMM_STS":0,"COMM_TS":"01/01/2024 00:00","UN":"UNBMO","CITY":"Redenção","UTRNAME":"BOOSTER SANTA RITA","COMM_TYPE":"Roteador Novus 4G","PROT_TYPE":"MQTT"},"geometry":{"type":"Point","coordinates":[-38.730165,-4.221985]}},{"type":"Feature","properties":{"UTR":805,"COMM_STS":0,"COMM_TS":"01/01/2024 00:00","UN":"UNBMO","CITY":"Redenção","UTRNAME":"BOOSTER URUCUZAL","COMM_TYPE":"Roteador Novus 4G","PROT_TYPE":""},"geometry":{"type":"Point","coordinates":[-38.742983,-4.311388]}},{"type":"Feature","properties":{"UTR":806,"COMM_STS":1,"COMM_TS":"01/01/2024 00:00","UN":"UNBMO","CITY":"Redenção","UTRNAME":"BOOSTER BARREIRA","COMM_TYPE":"Roteador Novus 4G","PROT_TYPE":"MQTT"},"geometry":{"type":"Point","coordinates":[-38.706526,-4.222558]}},{"type":"Feature","properties":{"UTR":807,"COMM_STS":0,"COMM_TS":"01/01/2024 00:00","UN":"UNBMO","CITY":"Redenção","UTRNAME":"RAP 10","COMM_TYPE":"Roteador Novus 4G","PROT_TYPE":""},"geometry":{"type":"Point","coordinates":[-38.70698,-4.22057]}},{"type":"Feature","properties":{"UTR":808,"COMM_STS":0,"COMM_TS":"01/01/2024 00:00","UN":"UNBMO","CITY":"Redenção","UTRNAME":"BOOSTER TAMANDUÁ","COMM_TYPE":"Roteador Novus 4G","PROT_TYPE":""},"geometry":{"type":"Point","coordinates":[-38.702738,-4.224651]}},{"type":"Feature","properties":{"UTR":809,"COMM_STS":1,"COMM_TS":"01/01/2024 00:00","UN":"UNBMO","CITY":"Redenção","UTRNAME":"BOOSTER RIACHÃO","COMM_TYPE":"Roteador Novus 4G","PROT_TYPE":"MQTT"},"geometry":{"type":"Point","coordinates":[-38.700921,-4.216553]}},{"type":"Feature","properties":{"UTR":810,"COMM_STS":1,"COMM_TS":"01/01/2024 00:00","UN":"UNBMO","CITY":"Redenção","UTRNAME":"BOOSTER CARRO ATOLADO","COMM_TYPE":"Roteador Novus 4G","PROT_TYPE":"MQTT"},"geometry":{"type":"Point","coordinates":[-38.683808,-4.273635]}},{"type":"Feature","properties":{"UTR":813,"COMM_STS":0,"COMM_TS":"01/01/2024 00:00","UN":"UNBMO","CITY":"Redenção","UTRNAME":"ETA SUSTO","COMM_TYPE":"Roteador Novus 4G","PROT_TYPE":"MQTT"},"geometry":{"type":"Point","coordinates":[-38.722429,-4.334059]}},{"type":"Feature","properties":{"UTR":815,"COMM_STS":1,"COMM_TS":"01/01/2024 00:00","UN":"UNBMO","CITY":"Palmácia","UTRNAME":"CAPTAÇÃO AÇUDE GERMINAL","COMM_TYPE":"Rádio Transnet900 com UTR 816","PROT_TYPE":"OPC UA"},"geometry":{"type":"Point","coordinates":[-38.865539,-4.180892]}},{"type":"Feature","properties":{"UTR":816,"COMM_STS":1,"COMM_TS":"01/01/2024 00:00","UN":"UNBMO","CITY":"Palmácia","UTRNAME":"ETA GERMINAL","COMM_TYPE":"Link Getic","PROT_TYPE":"OPC UA"},"geometry":{"type":"Point","coordinates":[-38.864069,-4.178751]}},{"type":"Feature","properties":{"UTR":817,"COMM_STS":0,"COMM_TS":"01/01/2024 00:00","UN":"UNBMO","CITY":"Palmácia","UTRNAME":"RAP-04","COMM_TYPE":"Roteador Novus 4G","PROT_TYPE":"MQTT"},"geometry":{"type":"Point","coordinates":[-38.852378,-4.1484]}},{"type":"Feature","properties":{"UTR":818,"COMM_STS":0,"COMM_TS":"01/01/2024 00:00","UN":"UNBMO","CITY":"Pacoti","UTRNAME":"ETA Pacoti","COMM_TYPE":"Roteador Novus 4G","PROT_TYPE":"OPC UA"},"geometry":{"type":"Point","coordinates":[-38.922098,-4.226424]}},{"type":"Feature","properties":{"UTR":819,"COMM_STS":0,"COMM_TS":"01/01/2024 00:00","UN":"UNBMO","CITY":"Pacoti","UTRNAME":"RAP-02","COMM_TYPE":"Roteador Novus 4G","PROT_TYPE":"MQTT"},"geometry":{"type":"Point","coordinates":[-38.924709,-4.227235]}}]}
