{"type":"FeatureCollection","features":[{"type":"Feature","geometry":{"type":"Point","coordinates":[-38.55836638387594,-3.903566980735044]},"properties":{"nome":"Canal Cogerh","id":"01B"}},{"type":"Feature","geometry":{"type":"Point","coordinates":[-38.52049919061484,-3.873212985071256]},"properties":{"nome":"Alameda das Palmeiras","id":"062"},"id":1},{"type":"Feature","geometry":{"type":"Point","coordinates":[-38.50178420355889,-3.745754053891961]},"properties":{"nome":"Aldeota","id":"007"}},{"type":"Feature","geometry":{"type":"Point","coordinates":[-38.56759961993915,-3.898684777586295]},"properties":{"nome":"Alto Fechado","id":"039"},"id":3},{"type":"Feature","geometry":{"type":"Point","coordinates":[-38.52312913153956,-3.876464328100756]},"properties":{"nome":"Reservatório Ancuri","id":"002"},"id":4},{"type":"Feature","geometry":{"type":"Point","coordinates":[-38.52271627825835,-3.870717383231351]},"properties":{"nome":"Bairro Novo","id":"061"},"id":5},{"type":"Feature","geometry":{"type":"Point","coordinates":[-38.51712327576018,-3.745695735553662]},"properties":{"nome":"Barrilete Alves Teixeira","id":"006"}},{"type":"Feature","geometry":{"type":"Point","coordinates":[-38.53956182808442,-3.752559058058316]},"properties":{"nome":"Barrilete Expedicionários_UTR 09","id":"009"}},{"type":"Feature","geometry":{"type":"Point","coordinates":[-38.53375992827925,-3.736943568445486]},"properties":{"nome":"Benfica 2","id":"10A"}},{"type":"Feature","geometry":{"type":"Point","coordinates":[-38.53161973717154,-3.733169202303244]},"properties":{"nome":"Benfica","id":"010"}},{"type":"Feature","geometry":{"type":"Point","coordinates":[-38.55296545825361,-3.750915191030743]},"properties":{"nome":"Bezerrinha","id":"019"}},{"type":"Feature","geometry":{"type":"Point","coordinates":[-38.5194149406822,-3.761378222127561]},"properties":{"nome":"Borges de Melo","id":"06A"}},{"type":"Feature","geometry":{"type":"Point","coordinates":[-38.49836948676623,-3.872983012293384]},"properties":{"nome":"Reforço Pedras","id":"27A"},"id":12},{"type":"Feature","geometry":{"type":"Point","coordinates":[-38.54042582992918,-3.825286670441812]},"properties":{"nome":"Castelão","id":"014"}},{"type":"Feature","geometry":{"type":"Point","coordinates":[-38.65252285816881,-3.761586516450652]},"properties":{"nome":"Caucaia","id":"051"}},{"type":"Feature","geometry":{"type":"Point","coordinates":[-38.56451949561502,-3.840872415097369]},"properties":{"nome":"Cidade Nova","id":"055"}},{"type":"Feature","geometry":{"type":"Point","coordinates":[-38.5172099098004,-3.7999159652449]},"properties":{"nome":"Cocó","id":"005"}},{"type":"Feature","geometry":{"type":"Point","coordinates":[-38.58512236780471,-3.81528660769032]},"properties":{"nome":"Conjunto Esperança","id":"031"}},{"type":"Feature","geometry":{"type":"Point","coordinates":[-38.46468618743363,-3.82622806119424]},"properties":{"nome":"Curió 1","id":"033"}},{"type":"Feature","geometry":{"type":"Point","coordinates":[-38.45615640727979,-3.879026581088962]},"properties":{"nome":"Eusébio","id":"028"}},{"type":"Feature","geometry":{"type":"Point","coordinates":[-38.55290697588276,-3.802006631698315]},"properties":{"nome":"Expedicionários","id":"036"}},{"type":"Feature","geometry":{"type":"Point","coordinates":[-38.56374410285969,-3.731893975988744]},"properties":{"nome":"Floresta","id":"012"}},{"type":"Feature","geometry":{"type":"Point","coordinates":[-38.55823792862161,-3.904329768282524]},"properties":{"nome":"Gavião Velho","id":"01A"}},{"type":"Feature","geometry":{"type":"Point","coordinates":[-38.55683711794828,-3.902774985628045]},"properties":{"nome":"Gavião Novo","id":"001"},"id":23},{"type":"Feature","geometry":{"type":"Point","coordinates":[-38.51666359565705,-3.892153117899053]},"properties":{"nome":"Gereraú","id":"043"},"id":24},{"type":"Feature","geometry":{"type":"Point","coordinates":[-38.47584175460234,-3.831563381435075]},"properties":{"nome":"Guajeru","id":"020"}},{"type":"Feature","geometry":{"type":"Point","coordinates":[-38.47421891081614,-3.863713731721397]},"properties":{"nome":"Ibiza","id":"032"}},{"type":"Feature","geometry":{"type":"Point","coordinates":[-38.61559884733447,-3.874348579664847]},"properties":{"nome":"Jereissati","id":"018"},"id":27},{"type":"Feature","geometry":{"type":"Point","coordinates":[-38.55202436293691,-3.824340743400028]},"properties":{"nome":"José Walter","id":"025"}},{"type":"Feature","geometry":{"type":"Point","coordinates":[-38.63469895930902,-3.862340986422921]},"properties":{"nome":"Loteamento Maracanaú","id":"029"}},{"type":"Feature","geometry":{"type":"Point","coordinates":[-38.64064772380218,-3.854834470830779]},"properties":{"nome":"Luzardo Viana","id":"037"}},{"type":"Feature","geometry":{"type":"Point","coordinates":[-38.52117119906778,-3.828419924199948]},"properties":{"nome":"Messejana","id":"004"}},{"type":"Feature","geometry":{"type":"Point","coordinates":[-38.65730565708655,-3.786686389383277]},"properties":{"nome":"Mirambé","id":"048"}},{"type":"Feature","geometry":{"type":"Point","coordinates":[-38.47456032214504,-3.726227525859875]},"properties":{"nome":"Mucuripe","id":"008"}},{"type":"Feature","geometry":{"type":"Point","coordinates":[-38.4884317634726,-3.833090839744057]},"properties":{"nome":"Murilão","id":"013"}},{"type":"Feature","geometry":{"type":"Point","coordinates":[-38.62819027749959,-3.790778199255739]},"properties":{"nome":"Palmares","id":"059"}},{"type":"Feature","geometry":{"type":"Point","coordinates":[-38.52198303594966,-3.846873634825172]},"properties":{"nome":"Palmeiras","id":"003"},"id":36},{"type":"Feature","geometry":{"type":"Point","coordinates":[-38.55989797749768,-3.754773957183107]},"properties":{"nome":"Papi Júnior","id":"047"}},{"type":"Feature","geometry":{"type":"Point","coordinates":[-38.55832487014235,-3.821495138654147]},"properties":{"nome":"Perimetral","id":"026"}},{"type":"Feature","geometry":{"type":"Point","coordinates":[-38.57395711607278,-3.75956129719456]},"properties":{"nome":"Pici","id":"011"}},{"type":"Feature","geometry":{"type":"Point","coordinates":[-38.57382210451491,-3.759407437610043]},"properties":{"nome":"Planalto Pici","id":"11A"}},{"type":"Feature","geometry":{"type":"Point","coordinates":[-38.65956337636893,-3.722471267895248]},"properties":{"nome":"Praias Oeste","id":"056"}},{"type":"Feature","geometry":{"type":"Point","coordinates":[-38.46840976544085,-3.866552418685808]},"properties":{"nome":"Reforço Messejana","id":"27B"}},{"type":"Feature","geometry":{"type":"Point","coordinates":[-38.65407345851133,-3.734609693828126]},"properties":{"nome":"Reforço Caucaia","id":"057"}},{"type":"Feature","geometry":{"type":"Point","coordinates":[-38.56790698269325,-3.752415808366329]},"properties":{"nome":"Reforço Pici","id":"058"}},{"type":"Feature","geometry":{"type":"Point","coordinates":[-38.62875485672323,-3.765322039303578]},"properties":{"nome":"Reforço Potira","id":"034"}},{"type":"Feature","geometry":{"type":"Point","coordinates":[-38.59604914977961,-3.798923165976415]},"properties":{"nome":"Siqueira","id":"015"}},{"type":"Feature","geometry":{"type":"Point","coordinates":[-38.60240791564426,-3.795229705683965]},"properties":{"nome":"Santo Amaro","id":"060"}},{"type":"Feature","geometry":{"type":"Point","coordinates":[-38.60159456933945,-3.748208913377916]},"properties":{"nome":"São Miguel","id":"054"}},{"type":"Feature","geometry":{"type":"Point","coordinates":[-38.65508200447583,-3.780467921864342]},"properties":{"nome":"Toco","id":"049"}},{"type":"Feature","geometry":{"type":"Point","coordinates":[-38.62050569826066,-3.867437772601523]},"properties":{"nome":"Trilho Maracanaú","id":"044"}},{"type":"Feature","geometry":{"type":"Point","coordinates":[-38.57216680936268,-3.812449213843522]},"properties":{"nome":"Vila Brasil 1","id":"022"}},{"type":"Feature","geometry":{"type":"Point","coordinates":[-38.58042397721302,-3.80781613574359]},"properties":{"nome":"Vila Brasil 2","id":"023"}},{"type":"Feature","geometry":{"type":"Point","coordinates":[-38.58020401959584,-3.784768379715792]},"properties":{"nome":"Vila Pery","id":"016"}},{"type":"Feature","geometry":{"type":"Point","coordinates":[-38.58192690012793,-3.797832615373256]},"properties":{"nome":"Vila Brasil","id":"021"}},{"type":"Feature","geometry":{"type":"Point","coordinates":[-38.45091114304945,-3.819036406016454]},"properties":{"nome":"Curió 2","id":"065"}},{"type":"Feature","geometry":{"type":"Point","coordinates":[-38.65349388864316,-3.855673080588603]},"properties":{"nome":"Mucunã","id":"038"}},{"type":"Feature","geometry":{"type":"Point","coordinates":[-38.514583,-3.857128]},"properties":{"nome":"Res. Luis Gonzaga","id":"066"}},{"type":"Feature","geometry":{"type":"Point","coordinates":[-38.558448,-3.7807557]},"properties":{"nome":"Silas Munguba","id":"067"}},{"type":"Feature","geometry":{"type":"Point","coordinates":[-38.530533,-3.759804]},"properties":{"nome":"Vila União","id":"068"}},{"type":"Feature","geometry":{"type":"Point","coordinates":[-38.581396,-3.88781]},"properties":{"nome":"Pavuna","id":"024"}}]}